[
	{
		'hud_id' : "NYA0000006",
		'name' : "1865 SECOND AVE ASSOC",
		'address' : "1865 2ND AVE",
		'city' : "NEW YORK",
		'state' : "NY",
		'borough' : "Manhattan",
		'zip' : "10029",
		'latitude' : "40.78444",
		'longitude' : "-73.947191",
		'assisted_units' : "17",
		'0br' : "0",
		'1br' : "0",
		'2br' : "17",
		'3br' : "0",
		'4br' : "0",
		'specific_target' : "1",
		'family' : "2",
		'elderly' : "1",
		'disabled' : "0",
		'homeless' : "0",
		'other' : "0",
		'other_specified' : ""
	},
	{
		'hud_id' : "NYA0000007",
		'name' : "196 ROCKAWAY PKWY",
		'address' : "196 ROCKAWAY PKWY",
		'city' : "BROOKLYN",
		'state' : "NY",
		'borough' : "Brooklyn",
		'zip' : "11212",
		'latitude' : "40.662139",
		'longitude' : "-73.921539",
		'assisted_units' : "18",
		'0br' : "0",
		'1br' : "12",
		'2br' : "4",
		'3br' : "2",
		'4br' : "0",
		'specific_target' : "1",
		'family' : "1",
		'elderly' : "0",
		'disabled' : "0",
		'homeless' : "0",
		'other' : "0",
		'other_specified' : ""
	},
	{
		'hud_id' : "NYA0000011",
		'name' : "2051 GRAND CONCOURSE",
		'address' : "2051 GRAND CONCOURSE",
		'city' : "BRONX",
		'state' : "NY",
		'borough' : "Bronx",
		'zip' : "10453",
		'latitude' : "40.852709",
		'longitude' : "-73.903863",
		'assisted_units' : "16",
		'0br' : "0",
		'1br' : "6",
		'2br' : "8",
		'3br' : "2",
		'4br' : "0",
		'specific_target' : "1",
		'family' : "1",
		'elderly' : "0",
		'disabled' : "0",
		'homeless' : "0",
		'other' : "0",
		'other_specified' : ""
	},
	{
		'hud_id' : "NYA0000029",
		'name' : "91 WOODRUFF AVE",
		'address' : "91 WOODRUFF AVE",
		'city' : "BROOKLYN",
		'state' : "NY",
		'borough' : "Brooklyn",
		'zip' : "11226",
		'latitude' : "40.653704",
		'longitude' : "-73.963167",
		'assisted_units' : "14",
		'0br' : "0",
		'1br' : "8",
		'2br' : "4",
		'3br' : "2",
		'4br' : "0",
		'specific_target' : "1",
		'family' : "1",
		'elderly' : "0",
		'disabled' : "0",
		'homeless' : "0",
		'other' : "0",
		'other_specified' : ""
	},
	{
		'hud_id' : "NYA0000039",
		'name' : "BALLARD DEVELOPMENT",
		'address' : "300 W 116TH ST",
		'city' : "NEW YORK",
		'state' : "NY",
		'borough' : "Manhattan",
		'zip' : "10026",
		'latitude' : "40.804387",
		'longitude' : "-73.955725",
		'assisted_units' : "43",
		'0br' : "43",
		'1br' : "0",
		'2br' : "0",
		'3br' : "0",
		'4br' : "0",
		'specific_target' : "1",
		'family' : "0",
		'elderly' : "0",
		'disabled' : "0",
		'homeless' : "1",
		'other' : "0",
		'other_specified' : ""
	},
	{
		'hud_id' : "NYA0000046",
		'name' : "BERRY STREET",
		'address' : "101 S 8TH ST",
		'city' : "BROOKLYN",
		'state' : "NY",
		'borough' : "Brooklyn",
		'zip' : "11249",
		'latitude' : "40.709832",
		'longitude' : "-73.965226",
		'assisted_units' : "25",
		'0br' : "4",
		'1br' : "4",
		'2br' : "1",
		'3br' : "16",
		'4br' : "0",
		'specific_target' : "1",
		'family' : "1",
		'elderly' : "0",
		'disabled' : "0",
		'homeless' : "0",
		'other' : "1",
		'other_specified' : "UNSPECIFIED"
	},
	{
		'hud_id' : "NYA0000049",
		'name' : "BUILD-CROTONA ASSOC",
		'address' : "824 E 181ST ST",
		'city' : "BRONX",
		'state' : "NY",
		'borough' : "Bronx",
		'zip' : "10460",
		'latitude' : "40.84664",
		'longitude' : "-73.883916",
		'assisted_units' : "32",
		'0br' : "4",
		'1br' : "14",
		'2br' : "9",
		'3br' : "5",
		'4br' : "0",
		'specific_target' : "1",
		'family' : "1",
		'elderly' : "0",
		'disabled' : "0",
		'homeless' : "1",
		'other' : "0",
		'other_specified' : ""
	},
	{
		'hud_id' : "NYA0000051",
		'name' : "C-H DEVELOPMENT GROUP ASSOC",
		'address' : "1728 AMSTERDAM AVE",
		'city' : "NEW YORK",
		'state' : "NY",
		'borough' : "Manhattan",
		'zip' : "10031",
		'latitude' : "40.825714",
		'longitude' : "-73.947501",
		'assisted_units' : "35",
		'0br' : "0",
		'1br' : "18",
		'2br' : "16",
		'3br' : "1",
		'4br' : "0",
		'specific_target' : "1",
		'family' : "1",
		'elderly' : "0",
		'disabled' : "0",
		'homeless' : "0",
		'other' : "0",
		'other_specified' : ""
	},
	{
		'hud_id' : "NYA0000060",
		'name' : "615 W 173RD ST",
		'address' : "615 W 173RD ST",
		'city' : "NEW YORK",
		'state' : "NY",
		'borough' : "Manhattan",
		'zip' : "10032",
		'latitude' : "40.844799",
		'longitude' : "-73.938634",
		'assisted_units' : "15",
		'0br' : "1",
		'1br' : "6",
		'2br' : "5",
		'3br' : "1",
		'4br' : "2",
		'specific_target' : "1",
		'family' : "2",
		'elderly' : "1",
		'disabled' : "1",
		'homeless' : "0",
		'other' : "0",
		'other_specified' : ""
	},
	{
		'hud_id' : "NYA0000068",
		'name' : "ELDRIDGE STREET",
		'address' : "176 ELDRIDGE ST",
		'city' : "NEW YORK",
		'state' : "NY",
		'borough' : "Manhattan",
		'zip' : "10002",
		'latitude' : "40.720278",
		'longitude' : "-73.990648",
		'assisted_units' : "60",
		'0br' : "25",
		'1br' : "16",
		'2br' : "19",
		'3br' : "0",
		'4br' : "0",
		'specific_target' : "1",
		'family' : "1",
		'elderly' : "1",
		'disabled' : "0",
		'homeless' : "0",
		'other' : "0",
		'other_specified' : ""
	},
	{
		'hud_id' : "NYA0000081",
		'name' : "GATES AVENUE ASSOC, PHASE II",
		'address' : "650 GATES AVE",
		'city' : "BROOKLYN",
		'state' : "NY",
		'borough' : "Brooklyn",
		'zip' : "11221",
		'latitude' : "40.687401",
		'longitude' : "-73.938892",
		'assisted_units' : "160",
		'0br' : "0",
		'1br' : "40",
		'2br' : "48",
		'3br' : "72",
		'4br' : "0",
		'specific_target' : "1",
		'family' : "2",
		'elderly' : "1",
		'disabled' : "0",
		'homeless' : "0",
		'other' : "0",
		'other_specified' : ""
	},
	{
		'hud_id' : "NYA0000084",
		'name' : "GOLDEN GATES",
		'address' : "1091 GATES AVE",
		'city' : "BROOKLYN",
		'state' : "NY",
		'borough' : "Brooklyn",
		'zip' : "11221",
		'latitude' : "40.690087",
		'longitude' : "-73.921752",
		'assisted_units' : "22",
		'0br' : "4",
		'1br' : "12",
		'2br' : "6",
		'3br' : "0",
		'4br' : "0",
		'specific_target' : "1",
		'family' : "1",
		'elderly' : "0",
		'disabled' : "0",
		'homeless' : "0",
		'other' : "0",
		'other_specified' : ""
	},
	{
		'hud_id' : "NYA0000088",
		'name' : "HEIGHTS INVESTMENT GROUP",
		'address' : "518 W 204TH ST",
		'city' : "NEW YORK",
		'state' : "NY",
		'borough' : "Manhattan",
		'zip' : "10034",
		'latitude' : "40.863281",
		'longitude' : "-73.920956",
		'assisted_units' : "9",
		'0br' : "0",
		'1br' : "7",
		'2br' : "2",
		'3br' : "0",
		'4br' : "0",
		'specific_target' : "1",
		'family' : "1",
		'elderly' : "0",
		'disabled' : "0",
		'homeless' : "0",
		'other' : "0",
		'other_specified' : ""
	},
	{
		'hud_id' : "NYA0000089",
		'name' : "HEWITT HOUSE HSG PARTNERSHIP INC",
		'address' : "1470 SAINT JOHNS PL",
		'city' : "BROOKLYN",
		'state' : "NY",
		'borough' : "Brooklyn",
		'zip' : "11213",
		'latitude' : "40.670351",
		'longitude' : "-73.929676",
		'assisted_units' : "55",
		'0br' : "0",
		'1br' : "23",
		'2br' : "30",
		'3br' : "2",
		'4br' : "0",
		'specific_target' : "1",
		'family' : "1",
		'elderly' : "0",
		'disabled' : "0",
		'homeless' : "1",
		'other' : "0",
		'other_specified' : ""
	},
	{
		'hud_id' : "NYA0000096",
		'name' : "IRVING STOCKHOLM ASSOC INC",
		'address' : "22 IRVING AVE",
		'city' : "BROOKLYN",
		'state' : "NY",
		'borough' : "Brooklyn",
		'zip' : "11237",
		'latitude' : "40.705084",
		'longitude' : "-73.925405",
		'assisted_units' : "22",
		'0br' : "1",
		'1br' : "6",
		'2br' : "11",
		'3br' : "4",
		'4br' : "0",
		'specific_target' : "1",
		'family' : "1",
		'elderly' : "0",
		'disabled' : "0",
		'homeless' : "0",
		'other' : "0",
		'other_specified' : ""
	},
	{
		'hud_id' : "NYA0000098",
		'name' : "KOWAL HOUSE",
		'address' : "149 MANHATTAN AVE",
		'city' : "NEW YORK",
		'state' : "NY",
		'borough' : "Manhattan",
		'zip' : "10025",
		'latitude' : "40.799134",
		'longitude' : "-73.961356",
		'assisted_units' : "72",
		'0br' : "72",
		'1br' : "0",
		'2br' : "0",
		'3br' : "0",
		'4br' : "0",
		'specific_target' : "1",
		'family' : "0",
		'elderly' : "0",
		'disabled' : "0",
		'homeless' : "0",
		'other' : "1",
		'other_specified' : "UNSPECIFIED"
	},
	{
		'hud_id' : "NYA0000106",
		'name' : "LIHC PROJECT",
		'address' : "80 ANDROS AVE",
		'city' : "STATEN ISLAND",
		'state' : "NY",
		'borough' : "Staten Island",
		'zip' : "10303",
		'latitude' : "40.63576",
		'longitude' : "-74.162626",
		'assisted_units' : "38",
		'0br' : "4",
		'1br' : "15",
		'2br' : "19",
		'3br' : "0",
		'4br' : "0",
		'specific_target' : "1",
		'family' : "1",
		'elderly' : "0",
		'disabled' : "0",
		'homeless' : "0",
		'other' : "0",
		'other_specified' : ""
	},
	{
		'hud_id' : "NYA0000109",
		'name' : "LOISAIDA FAMILY HOUSE",
		'address' : "250 E 4TH ST",
		'city' : "NEW YORK",
		'state' : "NY",
		'borough' : "Manhattan",
		'zip' : "10009",
		'latitude' : "40.723138",
		'longitude' : "-73.98262",
		'assisted_units' : "34",
		'0br' : "0",
		'1br' : "1",
		'2br' : "28",
		'3br' : "5",
		'4br' : "0",
		'specific_target' : "1",
		'family' : "1",
		'elderly' : "0",
		'disabled' : "0",
		'homeless' : "0",
		'other' : "0",
		'other_specified' : ""
	},
	{
		'hud_id' : "NYA0000116",
		'name' : "MAPES COURT ASSOC",
		'address' : "2158 MAPES AVE",
		'city' : "BRONX",
		'state' : "NY",
		'borough' : "Bronx",
		'zip' : "10460",
		'latitude' : "40.847863",
		'longitude' : "-73.88421",
		'assisted_units' : "91",
		'0br' : "0",
		'1br' : "7",
		'2br' : "68",
		'3br' : "16",
		'4br' : "0",
		'specific_target' : "1",
		'family' : "1",
		'elderly' : "0",
		'disabled' : "0",
		'homeless' : "0",
		'other' : "0",
		'other_specified' : ""
	},
	{
		'hud_id' : "NYA0000120",
		'name' : "1197 GRAND CONCOURSE",
		'address' : "1197 GRAND CONCOURSE",
		'city' : "BRONX",
		'state' : "NY",
		'borough' : "Bronx",
		'zip' : "10452",
		'latitude' : "40.834382",
		'longitude' : "-73.918357",
		'assisted_units' : "26",
		'0br' : "0",
		'1br' : "8",
		'2br' : "13",
		'3br' : "5",
		'4br' : "0",
		'specific_target' : "1",
		'family' : "1",
		'elderly' : "0",
		'disabled' : "0",
		'homeless' : "0",
		'other' : "0",
		'other_specified' : ""
	},
	{
		'hud_id' : "NYA0000126",
		'name' : "MORNINGSIDE DEVELOPMENT GROUP",
		'address' : "163 MORNINGSIDE AVE",
		'city' : "NEW YORK",
		'state' : "NY",
		'borough' : "Manhattan",
		'zip' : "10027",
		'latitude' : "40.812182",
		'longitude' : "-73.953223",
		'assisted_units' : "99",
		'0br' : "0",
		'1br' : "60",
		'2br' : "39",
		'3br' : "0",
		'4br' : "0",
		'specific_target' : "1",
		'family' : "1",
		'elderly' : "0",
		'disabled' : "0",
		'homeless' : "0",
		'other' : "0",
		'other_specified' : ""
	},
	{
		'hud_id' : "NYA0000129",
		'name' : "BRONX ANDREWS ASSOC",
		'address' : "2341 ANDREWS AVE",
		'city' : "BRONX",
		'state' : "NY",
		'borough' : "Bronx",
		'zip' : "10468",
		'latitude' : "40.862354",
		'longitude' : "-73.906794",
		'assisted_units' : "15",
		'0br' : "0",
		'1br' : "0",
		'2br' : "0",
		'3br' : "10",
		'4br' : "5",
		'specific_target' : "1",
		'family' : "1",
		'elderly' : "0",
		'disabled' : "0",
		'homeless' : "0",
		'other' : "0",
		'other_specified' : ""
	},
	{
		'hud_id' : "NYA0000130",
		'name' : "1220 GRAND CONCOURSE",
		'address' : "1220 GRAND CONCOURSE",
		'city' : "BRONX",
		'state' : "NY",
		'borough' : "Bronx",
		'zip' : "10456",
		'latitude' : "40.834768",
		'longitude' : "-73.916918",
		'assisted_units' : "5",
		'0br' : "0",
		'1br' : "3",
		'2br' : "2",
		'3br' : "0",
		'4br' : "0",
		'specific_target' : "1",
		'family' : "1",
		'elderly' : "0",
		'disabled' : "0",
		'homeless' : "0",
		'other' : "0",
		'other_specified' : ""
	},
	{
		'hud_id' : "NYA0000131",
		'name' : "95 THAYER ST",
		'address' : "95 THAYER ST",
		'city' : "NEW YORK",
		'state' : "NY",
		'borough' : "Manhattan",
		'zip' : "10040",
		'latitude' : "40.864042",
		'longitude' : "-73.927196",
		'assisted_units' : "21",
		'0br' : "0",
		'1br' : "9",
		'2br' : "12",
		'3br' : "0",
		'4br' : "0",
		'specific_target' : "1",
		'family' : "2",
		'elderly' : "1",
		'disabled' : "0",
		'homeless' : "0",
		'other' : "0",
		'other_specified' : ""
	},
	{
		'hud_id' : "NYA0000140",
		'name' : "1290 GRAND CONCOURSE",
		'address' : "1290 GRAND CONCOURSE",
		'city' : "BRONX",
		'state' : "NY",
		'borough' : "Bronx",
		'zip' : "10456",
		'latitude' : "40.836315",
		'longitude' : "-73.915425",
		'assisted_units' : "21",
		'0br' : "1",
		'1br' : "4",
		'2br' : "12",
		'3br' : "4",
		'4br' : "0",
		'specific_target' : "1",
		'family' : "1",
		'elderly' : "0",
		'disabled' : "0",
		'homeless' : "0",
		'other' : "0",
		'other_specified' : ""
	},
	{
		'hud_id' : "NYA0000141",
		'name' : "REVIVE 103 NORTH ASSOC INC",
		'address' : "159 E 103RD ST",
		'city' : "NEW YORK",
		'state' : "NY",
		'borough' : "Manhattan",
		'zip' : "10029",
		'latitude' : "40.790193",
		'longitude' : "-73.946936",
		'assisted_units' : "7",
		'0br' : "0",
		'1br' : "5",
		'2br' : "2",
		'3br' : "0",
		'4br' : "0",
		'specific_target' : "1",
		'family' : "1",
		'elderly' : "0",
		'disabled' : "0",
		'homeless' : "0",
		'other' : "0",
		'other_specified' : ""
	},
	{
		'hud_id' : "NYA0000145",
		'name' : "1330 WILLOUGHBY AVE",
		'address' : "1330 WILLOUGHBY AVE",
		'city' : "BROOKLYN",
		'state' : "NY",
		'borough' : "Brooklyn",
		'zip' : "11237",
		'latitude' : "40.705643",
		'longitude' : "-73.921162",
		'assisted_units' : "15",
		'0br' : "3",
		'1br' : "5",
		'2br' : "6",
		'3br' : "1",
		'4br' : "0",
		'specific_target' : "1",
		'family' : "1",
		'elderly' : "0",
		'disabled' : "0",
		'homeless' : "0",
		'other' : "0",
		'other_specified' : ""
	},
	{
		'hud_id' : "NYA0000147",
		'name' : "SOUTH EIGHTH STREET PARTNERSHIP",
		'address' : "176 S 8TH ST",
		'city' : "BROOKLYN",
		'state' : "NY",
		'borough' : "Brooklyn",
		'zip' : "11211",
		'latitude' : "40.709166",
		'longitude' : "-73.962224",
		'assisted_units' : "30",
		'0br' : "6",
		'1br' : "7",
		'2br' : "12",
		'3br' : "5",
		'4br' : "0",
		'specific_target' : "1",
		'family' : "1",
		'elderly' : "0",
		'disabled' : "0",
		'homeless' : "1",
		'other' : "0",
		'other_specified' : ""
	},
	{
		'hud_id' : "NYA0000152",
		'name' : "ST MARKS EPISCOPAL HDFC",
		'address' : "1777 BEDFORD AVE",
		'city' : "BROOKLYN",
		'state' : "NY",
		'borough' : "Brooklyn",
		'zip' : "11225",
		'latitude' : "40.662716",
		'longitude' : "-73.956903",
		'assisted_units' : "53",
		'0br' : "0",
		'1br' : "13",
		'2br' : "39",
		'3br' : "1",
		'4br' : "0",
		'specific_target' : "1",
		'family' : "1",
		'elderly' : "0",
		'disabled' : "0",
		'homeless' : "0",
		'other' : "0",
		'other_specified' : ""
	},
	{
		'hud_id' : "NYA0000153",
		'name' : "ST EDMUNDS COURT",
		'address' : "1892 MORRIS AVE",
		'city' : "BRONX",
		'state' : "NY",
		'borough' : "Bronx",
		'zip' : "10453",
		'latitude' : "40.849182",
		'longitude' : "-73.907959",
		'assisted_units' : "28",
		'0br' : "2",
		'1br' : "13",
		'2br' : "8",
		'3br' : "5",
		'4br' : "0",
		'specific_target' : "1",
		'family' : "1",
		'elderly' : "0",
		'disabled' : "0",
		'homeless' : "0",
		'other' : "0",
		'other_specified' : ""
	},
	{
		'hud_id' : "NYA0000154",
		'name' : "ST JOHNS PLACE",
		'address' : "1216 SAINT JOHNS PL",
		'city' : "BROOKLYN",
		'state' : "NY",
		'borough' : "Brooklyn",
		'zip' : "11213",
		'latitude' : "40.670807",
		'longitude' : "-73.938057",
		'assisted_units' : "22",
		'0br' : "0",
		'1br' : "0",
		'2br' : "16",
		'3br' : "6",
		'4br' : "0",
		'specific_target' : "1",
		'family' : "1",
		'elderly' : "0",
		'disabled' : "0",
		'homeless' : "0",
		'other' : "0",
		'other_specified' : ""
	},
	{
		'hud_id' : "NYA0000159",
		'name' : "U-P REHABILITATION ASSOC",
		'address' : "1574 UNION ST",
		'city' : "BROOKLYN",
		'state' : "NY",
		'borough' : "Brooklyn",
		'zip' : "11213",
		'latitude' : "40.667986",
		'longitude' : "-73.937103",
		'assisted_units' : "6",
		'0br' : "0",
		'1br' : "4",
		'2br' : "2",
		'3br' : "0",
		'4br' : "0",
		'specific_target' : "1",
		'family' : "1",
		'elderly' : "0",
		'disabled' : "1",
		'homeless' : "0",
		'other' : "0",
		'other_specified' : ""
	},
	{
		'hud_id' : "NYA0000160",
		'name' : "1666 UNION ST",
		'address' : "1666 UNION ST",
		'city' : "BROOKLYN",
		'state' : "NY",
		'borough' : "Brooklyn",
		'zip' : "11213",
		'latitude' : "40.667783",
		'longitude' : "-73.933473",
		'assisted_units' : "6",
		'0br' : "0",
		'1br' : "0",
		'2br' : "4",
		'3br' : "2",
		'4br' : "0",
		'specific_target' : "1",
		'family' : "1",
		'elderly' : "0",
		'disabled' : "1",
		'homeless' : "0",
		'other' : "0",
		'other_specified' : ""
	},
	{
		'hud_id' : "NYA0000161",
		'name' : "U-P REHABILITATION ASSOC",
		'address' : "1726 UNION ST",
		'city' : "BROOKLYN",
		'state' : "NY",
		'borough' : "Brooklyn",
		'zip' : "11213",
		'latitude' : "40.667651",
		'longitude' : "-73.931096",
		'assisted_units' : "4",
		'0br' : "0",
		'1br' : "2",
		'2br' : "2",
		'3br' : "0",
		'4br' : "0",
		'specific_target' : "1",
		'family' : "1",
		'elderly' : "0",
		'disabled' : "1",
		'homeless' : "0",
		'other' : "0",
		'other_specified' : ""
	},
	{
		'hud_id' : "NYA0000162",
		'name' : "UNITY HOUSE",
		'address' : "77 AVENUE C",
		'city' : "NEW YORK",
		'state' : "NY",
		'borough' : "Manhattan",
		'zip' : "10009",
		'latitude' : "40.723132",
		'longitude' : "-73.979785",
		'assisted_units' : "15",
		'0br' : "0",
		'1br' : "9",
		'2br' : "6",
		'3br' : "0",
		'4br' : "0",
		'specific_target' : "1",
		'family' : "1",
		'elderly' : "0",
		'disabled' : "0",
		'homeless' : "0",
		'other' : "0",
		'other_specified' : ""
	},
	{
		'hud_id' : "NYA0000165",
		'name' : "1681 PRESIDENT ST",
		'address' : "1681 PRESIDENT ST",
		'city' : "BROOKLYN",
		'state' : "NY",
		'borough' : "Brooklyn",
		'zip' : "11213",
		'latitude' : "40.667195",
		'longitude' : "-73.931567",
		'assisted_units' : "4",
		'0br' : "0",
		'1br' : "2",
		'2br' : "2",
		'3br' : "0",
		'4br' : "0",
		'specific_target' : "1",
		'family' : "1",
		'elderly' : "0",
		'disabled' : "1",
		'homeless' : "0",
		'other' : "0",
		'other_specified' : ""
	},
	{
		'hud_id' : "NYA0000169",
		'name' : "W 116TH ST",
		'address' : "307 W 116TH ST",
		'city' : "NEW YORK",
		'state' : "NY",
		'borough' : "Manhattan",
		'zip' : "10026",
		'latitude' : "40.804634",
		'longitude' : "-73.955421",
		'assisted_units' : "29",
		'0br' : "29",
		'1br' : "0",
		'2br' : "0",
		'3br' : "0",
		'4br' : "0",
		'specific_target' : "1",
		'family' : "1",
		'elderly' : "0",
		'disabled' : "0",
		'homeless' : "0",
		'other' : "0",
		'other_specified' : ""
	},
	{
		'hud_id' : "NYA0000173",
		'name' : "WEST 107 STREET",
		'address' : "171 W 107TH ST",
		'city' : "NEW YORK",
		'state' : "NY",
		'borough' : "Manhattan",
		'zip' : "10025",
		'latitude' : "40.800965",
		'longitude' : "-73.964418",
		'assisted_units' : "25",
		'0br' : "0",
		'1br' : "0",
		'2br' : "15",
		'3br' : "10",
		'4br' : "0",
		'specific_target' : "1",
		'family' : "2",
		'elderly' : "1",
		'disabled' : "0",
		'homeless' : "0",
		'other' : "0",
		'other_specified' : ""
	},
	{
		'hud_id' : "NYA0000174",
		'name' : "WEST HARLEM COMMUNITY ORGANIZATION INC",
		'address' : "202 SAINT NICHOLAS AVE",
		'city' : "NEW YORK",
		'state' : "NY",
		'borough' : "Manhattan",
		'zip' : "10027",
		'latitude' : "40.806814",
		'longitude' : "-73.952647",
		'assisted_units' : "27",
		'0br' : "0",
		'1br' : "10",
		'2br' : "17",
		'3br' : "0",
		'4br' : "0",
		'specific_target' : "1",
		'family' : "1",
		'elderly' : "0",
		'disabled' : "0",
		'homeless' : "0",
		'other' : "0",
		'other_specified' : ""
	},
	{
		'hud_id' : "NYA0000185",
		'name' : "1850 2ND AVE",
		'address' : "1850 2ND AVE",
		'city' : "NEW YORK",
		'state' : "NY",
		'borough' : "Manhattan",
		'zip' : "10128",
		'latitude' : "40.783906",
		'longitude' : "-73.947087",
		'assisted_units' : "48",
		'0br' : "12",
		'1br' : "26",
		'2br' : "10",
		'3br' : "0",
		'4br' : "0",
		'specific_target' : "1",
		'family' : "1",
		'elderly' : "0",
		'disabled' : "0",
		'homeless' : "0",
		'other' : "0",
		'other_specified' : ""
	},
	{
		'hud_id' : "NYA0000205",
		'name' : "SENATE RESIDENCE",
		'address' : "206 W 92ND ST",
		'city' : "NEW YORK",
		'state' : "NY",
		'borough' : "Manhattan",
		'zip' : "10025",
		'latitude' : "40.791432",
		'longitude' : "-73.972526",
		'assisted_units' : "140",
		'0br' : "140",
		'1br' : "0",
		'2br' : "0",
		'3br' : "0",
		'4br' : "0",
		'specific_target' : "1",
		'family' : "1",
		'elderly' : "0",
		'disabled' : "0",
		'homeless' : "0",
		'other' : "0",
		'other_specified' : ""
	},
	{
		'hud_id' : "NYA0000210",
		'name' : "235 E 14TH ST",
		'address' : "235 E 14TH ST",
		'city' : "NEW YORK",
		'state' : "NY",
		'borough' : "Manhattan",
		'zip' : "10003",
		'latitude' : "40.733111",
		'longitude' : "-73.986311",
		'assisted_units' : "17",
		'0br' : "0",
		'1br' : "6",
		'2br' : "11",
		'3br' : "0",
		'4br' : "0",
		'specific_target' : "1",
		'family' : "2",
		'elderly' : "1",
		'disabled' : "0",
		'homeless' : "0",
		'other' : "0",
		'other_specified' : ""
	},
	{
		'hud_id' : "NYA0000215",
		'name' : "255 LINDEN ST",
		'address' : "255 LINDEN ST",
		'city' : "BROOKLYN",
		'state' : "NY",
		'borough' : "Brooklyn",
		'zip' : "11237",
		'latitude' : "40.697746",
		'longitude' : "-73.915393",
		'assisted_units' : "21",
		'0br' : "0",
		'1br' : "10",
		'2br' : "9",
		'3br' : "2",
		'4br' : "0",
		'specific_target' : "1",
		'family' : "1",
		'elderly' : "0",
		'disabled' : "0",
		'homeless' : "0",
		'other' : "0",
		'other_specified' : ""
	},
	{
		'hud_id' : "NYA0000230",
		'name' : "ALLERTON ASSOC",
		'address' : "2700 BRONX PARK E",
		'city' : "BRONX",
		'state' : "NY",
		'borough' : "Bronx",
		'zip' : "10467",
		'latitude' : "40.866658",
		'longitude' : "-73.87021",
		'assisted_units' : "698",
		'0br' : "0",
		'1br' : "495",
		'2br' : "186",
		'3br' : "17",
		'4br' : "0",
		'specific_target' : "1",
		'family' : "1",
		'elderly' : "0",
		'disabled' : "0",
		'homeless' : "0",
		'other' : "0",
		'other_specified' : ""
	},
	{
		'hud_id' : "NYA0000320",
		'name' : "AMBASSADOR COURT ASSOC",
		'address' : "565 CROWN ST",
		'city' : "BROOKLYN",
		'state' : "NY",
		'borough' : "Brooklyn",
		'zip' : "11213",
		'latitude' : "40.665855",
		'longitude' : "-73.939656",
		'assisted_units' : "11",
		'0br' : "0",
		'1br' : "2",
		'2br' : "7",
		'3br' : "2",
		'4br' : "0",
		'specific_target' : "1",
		'family' : "1",
		'elderly' : "0",
		'disabled' : "0",
		'homeless' : "0",
		'other' : "0",
		'other_specified' : ""
	},
	{
		'hud_id' : "NYA0000405",
		'name' : "1111 GERARD AVE",
		'address' : "1111 GERARD AVE",
		'city' : "BRONX",
		'state' : "NY",
		'borough' : "Bronx",
		'zip' : "10452",
		'latitude' : "40.833035",
		'longitude' : "-73.921933",
		'assisted_units' : "120",
		'0br' : "40",
		'1br' : "17",
		'2br' : "63",
		'3br' : "0",
		'4br' : "0",
		'specific_target' : "1",
		'family' : "1",
		'elderly' : "0",
		'disabled' : "0",
		'homeless' : "0",
		'other' : "0",
		'other_specified' : ""
	},
	{
		'hud_id' : "NYA0000675",
		'name' : "1965 VYSE AVE",
		'address' : "1965 VYSE AVE",
		'city' : "BRONX",
		'state' : "NY",
		'borough' : "Bronx",
		'zip' : "10460",
		'latitude' : "40.841668",
		'longitude' : "-73.882738",
		'assisted_units' : "18",
		'0br' : "1",
		'1br' : "4",
		'2br' : "8",
		'3br' : "5",
		'4br' : "0",
		'specific_target' : "1",
		'family' : "0",
		'elderly' : "0",
		'disabled' : "0",
		'homeless' : "1",
		'other' : "0",
		'other_specified' : ""
	},
	{
		'hud_id' : "NYA0000955",
		'name' : "820 WASHINGTON AVE",
		'address' : "820 WASHINGTON AVE",
		'city' : "BROOKLYN",
		'state' : "NY",
		'borough' : "Brooklyn",
		'zip' : "11238",
		'latitude' : "40.673437",
		'longitude' : "-73.96314",
		'assisted_units' : "22",
		'0br' : "0",
		'1br' : "12",
		'2br' : "5",
		'3br' : "5",
		'4br' : "0",
		'specific_target' : "1",
		'family' : "1",
		'elderly' : "0",
		'disabled' : "0",
		'homeless' : "0",
		'other' : "0",
		'other_specified' : ""
	},
	{
		'hud_id' : "NYA1988020",
		'name' : "MARWYTE REALTY ASSOC",
		'address' : "9 MARCY PL",
		'city' : "BRONX",
		'state' : "NY",
		'borough' : "Bronx",
		'zip' : "10452",
		'latitude' : "40.839038",
		'longitude' : "-73.918272",
		'assisted_units' : "132",
		'0br' : "8",
		'1br' : "63",
		'2br' : "43",
		'3br' : "18",
		'4br' : "0",
		'specific_target' : "1",
		'family' : "1",
		'elderly' : "0",
		'disabled' : "0",
		'homeless' : "0",
		'other' : "0",
		'other_specified' : ""
	},
	{
		'hud_id' : "NYA1989032",
		'name' : "W 104TH ST",
		'address' : "123 W 104TH ST",
		'city' : "NEW YORK",
		'state' : "NY",
		'borough' : "Manhattan",
		'zip' : "10025",
		'latitude' : "40.79857",
		'longitude' : "-73.964955",
		'assisted_units' : "56",
		'0br' : "21",
		'1br' : "21",
		'2br' : "14",
		'3br' : "0",
		'4br' : "0",
		'specific_target' : "1",
		'family' : "1",
		'elderly' : "0",
		'disabled' : "0",
		'homeless' : "0",
		'other' : "0",
		'other_specified' : ""
	},
	{
		'hud_id' : "NYA1990005",
		'name' : "48-58 WHIPPLE ST PROJECT",
		'address' : "72 LEWIS AVE",
		'city' : "BROOKLYN",
		'state' : "NY",
		'borough' : "Brooklyn",
		'zip' : "11206",
		'latitude' : "40.695319",
		'longitude' : "-73.937739",
		'assisted_units' : "36",
		'0br' : "0",
		'1br' : "22",
		'2br' : "8",
		'3br' : "6",
		'4br' : "0",
		'specific_target' : "1",
		'family' : "2",
		'elderly' : "1",
		'disabled' : "0",
		'homeless' : "0",
		'other' : "0",
		'other_specified' : ""
	},
	{
		'hud_id' : "NYA1990010",
		'name' : "CARROLL GARDENS ASSOC INC",
		'address' : "722 HENRY ST",
		'city' : "BROOKLYN",
		'state' : "NY",
		'borough' : "Brooklyn",
		'zip' : "11231",
		'latitude' : "40.67634",
		'longitude' : "-74.003376",
		'assisted_units' : "15",
		'0br' : "0",
		'1br' : "1",
		'2br' : "14",
		'3br' : "0",
		'4br' : "0",
		'specific_target' : "1",
		'family' : "1",
		'elderly' : "0",
		'disabled' : "0",
		'homeless' : "0",
		'other' : "0",
		'other_specified' : ""
	},
	{
		'hud_id' : "NYA1990015",
		'name' : "MOUNT HOPE HSG CO INC",
		'address' : "264 ECHO PL",
		'city' : "BRONX",
		'state' : "NY",
		'borough' : "Bronx",
		'zip' : "10457",
		'latitude' : "40.849405",
		'longitude' : "-73.903868",
		'assisted_units' : "50",
		'0br' : "2",
		'1br' : "13",
		'2br' : "30",
		'3br' : "5",
		'4br' : "0",
		'specific_target' : "1",
		'family' : "2",
		'elderly' : "1",
		'disabled' : "0",
		'homeless' : "0",
		'other' : "0",
		'other_specified' : ""
	},
	{
		'hud_id' : "NYA1990025",
		'name' : "W 143RD ST",
		'address' : "307 W 143RD ST",
		'city' : "NEW YORK",
		'state' : "NY",
		'borough' : "Manhattan",
		'zip' : "10030",
		'latitude' : "40.821834",
		'longitude' : "-73.943114",
		'assisted_units' : "11",
		'0br' : "0",
		'1br' : "1",
		'2br' : "10",
		'3br' : "0",
		'4br' : "0",
		'specific_target' : "1",
		'family' : "1",
		'elderly' : "0",
		'disabled' : "0",
		'homeless' : "0",
		'other' : "0",
		'other_specified' : ""
	},
	{
		'hud_id' : "NYA1990030",
		'name' : "W 146TH ST",
		'address' : "211 W 146TH ST",
		'city' : "NEW YORK",
		'state' : "NY",
		'borough' : "Manhattan",
		'zip' : "10039",
		'latitude' : "40.822931",
		'longitude' : "-73.939617",
		'assisted_units' : "87",
		'0br' : "87",
		'1br' : "0",
		'2br' : "0",
		'3br' : "0",
		'4br' : "0",
		'specific_target' : "1",
		'family' : "1",
		'elderly' : "0",
		'disabled' : "0",
		'homeless' : "0",
		'other' : "0",
		'other_specified' : ""
	},
	{
		'hud_id' : "NYA1990035",
		'name' : "W 147TH ST",
		'address' : "290 W 147TH ST",
		'city' : "NEW YORK",
		'state' : "NY",
		'borough' : "Manhattan",
		'zip' : "10039",
		'latitude' : "40.823713",
		'longitude' : "-73.940422",
		'assisted_units' : "31",
		'0br' : "0",
		'1br' : "0",
		'2br' : "30",
		'3br' : "1",
		'4br' : "0",
		'specific_target' : "1",
		'family' : "2",
		'elderly' : "1",
		'disabled' : "0",
		'homeless' : "0",
		'other' : "0",
		'other_specified' : ""
	},
	{
		'hud_id' : "NYA1991010",
		'name' : "12 W 132ND ST",
		'address' : "12 W 132ND ST",
		'city' : "NEW YORK",
		'state' : "NY",
		'borough' : "Manhattan",
		'zip' : "10037",
		'latitude' : "40.810843",
		'longitude' : "-73.939454",
		'assisted_units' : "30",
		'0br' : "1",
		'1br' : "6",
		'2br' : "16",
		'3br' : "7",
		'4br' : "0",
		'specific_target' : "1",
		'family' : "1",
		'elderly' : "0",
		'disabled' : "0",
		'homeless' : "0",
		'other' : "0",
		'other_specified' : ""
	},
	{
		'hud_id' : "NYA1991015",
		'name' : "HARBOR COURT",
		'address' : "20 LOCKMAN LOOP",
		'city' : "STATEN ISLAND",
		'state' : "NY",
		'borough' : "Staten Island",
		'zip' : "10303",
		'latitude' : "40.633063",
		'longitude' : "-74.161115",
		'assisted_units' : "40",
		'0br' : "12",
		'1br' : "12",
		'2br' : "16",
		'3br' : "0",
		'4br' : "0",
		'specific_target' : "1",
		'family' : "1",
		'elderly' : "0",
		'disabled' : "0",
		'homeless' : "0",
		'other' : "0",
		'other_specified' : ""
	},
	{
		'hud_id' : "NYA1991020",
		'name' : "2837 FREDERICK DOUGLASS BLVD",
		'address' : "2837 FREDERICK DOUGLASS BLVD",
		'city' : "NEW YORK",
		'state' : "NY",
		'borough' : "Manhattan",
		'zip' : "10039",
		'latitude' : "40.826856",
		'longitude' : "-73.939238",
		'assisted_units' : "45",
		'0br' : "0",
		'1br' : "25",
		'2br' : "20",
		'3br' : "0",
		'4br' : "0",
		'specific_target' : "1",
		'family' : "1",
		'elderly' : "0",
		'disabled' : "0",
		'homeless' : "0",
		'other' : "0",
		'other_specified' : ""
	},
	{
		'hud_id' : "NYA1991025",
		'name' : "NY AFFORDABLE HSG",
		'address' : "213 W 115TH ST",
		'city' : "NEW YORK",
		'state' : "NY",
		'borough' : "Manhattan",
		'zip' : "10026",
		'latitude' : "40.803055",
		'longitude' : "-73.953755",
		'assisted_units' : "32",
		'0br' : "3",
		'1br' : "16",
		'2br' : "11",
		'3br' : "2",
		'4br' : "0",
		'specific_target' : "1",
		'family' : "1",
		'elderly' : "0",
		'disabled' : "0",
		'homeless' : "0",
		'other' : "0",
		'other_specified' : ""
	},
	{
		'hud_id' : "NYA1991030",
		'name' : "237 E 163RD ST",
		'address' : "237 E 163RD ST",
		'city' : "BRONX",
		'state' : "NY",
		'borough' : "Bronx",
		'zip' : "10451",
		'latitude' : "40.827829",
		'longitude' : "-73.918812",
		'assisted_units' : "25",
		'0br' : "3",
		'1br' : "15",
		'2br' : "7",
		'3br' : "0",
		'4br' : "0",
		'specific_target' : "1",
		'family' : "1",
		'elderly' : "0",
		'disabled' : "1",
		'homeless' : "1",
		'other' : "1",
		'other_specified' : "UNSPECIFIED"
	},
	{
		'hud_id' : "NYA1991035",
		'name' : "FT WASHINGTON AVE HSG",
		'address' : "10 FORT WASHINGTON AVE",
		'city' : "NEW YORK",
		'state' : "NY",
		'borough' : "Manhattan",
		'zip' : "10032",
		'latitude' : "40.836028",
		'longitude' : "-73.944371",
		'assisted_units' : "82",
		'0br' : "75",
		'1br' : "0",
		'2br' : "7",
		'3br' : "0",
		'4br' : "0",
		'specific_target' : "1",
		'family' : "0",
		'elderly' : "0",
		'disabled' : "0",
		'homeless' : "1",
		'other' : "0",
		'other_specified' : ""
	},
	{
		'hud_id' : "NYA1991045",
		'name' : "106 VAN BUREN ST",
		'address' : "106 VAN BUREN ST",
		'city' : "BROOKLYN",
		'state' : "NY",
		'borough' : "Brooklyn",
		'zip' : "11221",
		'latitude' : "40.690041",
		'longitude' : "-73.941933",
		'assisted_units' : "2",
		'0br' : "0",
		'1br' : "0",
		'2br' : "0",
		'3br' : "0",
		'4br' : "2",
		'specific_target' : "1",
		'family' : "0",
		'elderly' : "0",
		'disabled' : "0",
		'homeless' : "0",
		'other' : "1",
		'other_specified' : "UNSPECIFIED"
	},
	{
		'hud_id' : "NYA1991060",
		'name' : "1802 AMSTERDAM AVE",
		'address' : "1802 AMSTERDAM AVE",
		'city' : "NEW YORK",
		'state' : "NY",
		'borough' : "Manhattan",
		'zip' : "10031",
		'latitude' : "40.827937",
		'longitude' : "-73.945876",
		'assisted_units' : "20",
		'0br' : "0",
		'1br' : "11",
		'2br' : "6",
		'3br' : "3",
		'4br' : "0",
		'specific_target' : "1",
		'family' : "1",
		'elderly' : "0",
		'disabled' : "0",
		'homeless' : "0",
		'other' : "0",
		'other_specified' : ""
	},
	{
		'hud_id' : "NYA1991070",
		'name' : "1921-1925 FULTON ST HSG DEV",
		'address' : "1921 FULTON ST",
		'city' : "BROOKLYN",
		'state' : "NY",
		'borough' : "Brooklyn",
		'zip' : "11233",
		'latitude' : "40.678895",
		'longitude' : "-73.919076",
		'assisted_units' : "36",
		'0br' : "9",
		'1br' : "13",
		'2br' : "9",
		'3br' : "5",
		'4br' : "0",
		'specific_target' : "1",
		'family' : "1",
		'elderly' : "1",
		'disabled' : "0",
		'homeless' : "1",
		'other' : "0",
		'other_specified' : ""
	},
	{
		'hud_id' : "NYA1991075",
		'name' : "513 W 159TH ST",
		'address' : "513 W 159TH ST",
		'city' : "NEW YORK",
		'state' : "NY",
		'borough' : "Manhattan",
		'zip' : "10032",
		'latitude' : "40.834434",
		'longitude' : "-73.941437",
		'assisted_units' : "10",
		'0br' : "0",
		'1br' : "0",
		'2br' : "5",
		'3br' : "5",
		'4br' : "0",
		'specific_target' : "1",
		'family' : "0",
		'elderly' : "0",
		'disabled' : "0",
		'homeless' : "1",
		'other' : "0",
		'other_specified' : ""
	},
	{
		'hud_id' : "NYA1991080",
		'name' : "ANDERSON REHAB ASSOC",
		'address' : "963 ANDERSON AVE",
		'city' : "BRONX",
		'state' : "NY",
		'borough' : "Bronx",
		'zip' : "10452",
		'latitude' : "40.831282",
		'longitude' : "-73.927638",
		'assisted_units' : "24",
		'0br' : "0",
		'1br' : "16",
		'2br' : "8",
		'3br' : "0",
		'4br' : "0",
		'specific_target' : "1",
		'family' : "1",
		'elderly' : "0",
		'disabled' : "0",
		'homeless' : "0",
		'other' : "0",
		'other_specified' : ""
	},
	{
		'hud_id' : "NYA1991085",
		'name' : "ASTORIA MAC",
		'address' : "110 ASTORIA BLVD",
		'city' : "QUEENS",
		'state' : "NY",
		'borough' : "Queens",
		'zip' : "11102",
		'latitude' : "40.773775",
		'longitude' : "-73.93675",
		'assisted_units' : "16",
		'0br' : "0",
		'1br' : "3",
		'2br' : "9",
		'3br' : "4",
		'4br' : "0",
		'specific_target' : "1",
		'family' : "1",
		'elderly' : "0",
		'disabled' : "0",
		'homeless' : "0",
		'other' : "0",
		'other_specified' : ""
	},
	{
		'hud_id' : "NYA1991110",
		'name' : "BX-7C",
		'address' : "1149 MORRIS AVE",
		'city' : "BRONX",
		'state' : "NY",
		'borough' : "Bronx",
		'zip' : "10456",
		'latitude' : "40.831865",
		'longitude' : "-73.915159",
		'assisted_units' : "41",
		'0br' : "0",
		'1br' : "11",
		'2br' : "30",
		'3br' : "0",
		'4br' : "0",
		'specific_target' : "1",
		'family' : "1",
		'elderly' : "0",
		'disabled' : "0",
		'homeless' : "0",
		'other' : "0",
		'other_specified' : ""
	},
	{
		'hud_id' : "NYA1991130",
		'name' : "CONSANT",
		'address' : "1765 DAVIDSON AVE",
		'city' : "BRONX",
		'state' : "NY",
		'borough' : "Bronx",
		'zip' : "10453",
		'latitude' : "40.848769",
		'longitude' : "-73.912992",
		'assisted_units' : "49",
		'0br' : "0",
		'1br' : "17",
		'2br' : "26",
		'3br' : "6",
		'4br' : "0",
		'specific_target' : "1",
		'family' : "1",
		'elderly' : "0",
		'disabled' : "0",
		'homeless' : "1",
		'other' : "1",
		'other_specified' : "UNSPECIFIED"
	},
	{
		'hud_id' : "NYA1991175",
		'name' : "FREDERICK DOUGLASS BLVD",
		'address' : "2825 FREDERICK DOUGLASS BLVD",
		'city' : "NEW YORK",
		'state' : "NY",
		'borough' : "Manhattan",
		'zip' : "10039",
		'latitude' : "40.826203",
		'longitude' : "-73.939714",
		'assisted_units' : "44",
		'0br' : "0",
		'1br' : "16",
		'2br' : "23",
		'3br' : "5",
		'4br' : "0",
		'specific_target' : "1",
		'family' : "1",
		'elderly' : "0",
		'disabled' : "0",
		'homeless' : "0",
		'other' : "0",
		'other_specified' : ""
	},
	{
		'hud_id' : "NYA1991220",
		'name' : "NEW AMSTERDAM ASSOC",
		'address' : "1745 AMSTERDAM AVE",
		'city' : "NEW YORK",
		'state' : "NY",
		'borough' : "Manhattan",
		'zip' : "10031",
		'latitude' : "40.826051",
		'longitude' : "-73.946758",
		'assisted_units' : "15",
		'0br' : "1",
		'1br' : "1",
		'2br' : "13",
		'3br' : "0",
		'4br' : "0",
		'specific_target' : "1",
		'family' : "1",
		'elderly' : "0",
		'disabled' : "1",
		'homeless' : "1",
		'other' : "1",
		'other_specified' : "UNSPECIFIED"
	},
	{
		'hud_id' : "NYA1991230",
		'name' : "PARC VENDOME",
		'address' : "359 GRAND AVE",
		'city' : "BROOKLYN",
		'state' : "NY",
		'borough' : "Brooklyn",
		'zip' : "11238",
		'latitude' : "40.685223",
		'longitude' : "-73.961962",
		'assisted_units' : "24",
		'0br' : "0",
		'1br' : "1",
		'2br' : "23",
		'3br' : "0",
		'4br' : "0",
		'specific_target' : "1",
		'family' : "1",
		'elderly' : "0",
		'disabled' : "0",
		'homeless' : "0",
		'other' : "0",
		'other_specified' : ""
	},
	{
		'hud_id' : "NYA1991235",
		'name' : "PHHP SITE #5",
		'address' : "824 E 161ST ST",
		'city' : "BRONX",
		'state' : "NY",
		'borough' : "Bronx",
		'zip' : "10459",
		'latitude' : "40.820539",
		'longitude' : "-73.902271",
		'assisted_units' : "44",
		'0br' : "0",
		'1br' : "2",
		'2br' : "32",
		'3br' : "10",
		'4br' : "0",
		'specific_target' : "1",
		'family' : "1",
		'elderly' : "0",
		'disabled' : "0",
		'homeless' : "1",
		'other' : "0",
		'other_specified' : ""
	},
	{
		'hud_id' : "NYA1991260",
		'name' : "SITE B 275",
		'address' : "275 W 150TH ST",
		'city' : "NEW YORK",
		'state' : "NY",
		'borough' : "Manhattan",
		'zip' : "10039",
		'latitude' : "40.825426",
		'longitude' : "-73.937771",
		'assisted_units' : "15",
		'0br' : "0",
		'1br' : "4",
		'2br' : "8",
		'3br' : "3",
		'4br' : "0",
		'specific_target' : "1",
		'family' : "1",
		'elderly' : "0",
		'disabled' : "0",
		'homeless' : "0",
		'other' : "0",
		'other_specified' : ""
	},
	{
		'hud_id' : "NYA1991265",
		'name' : "SITE BSW",
		'address' : "1963 MADISON AVE",
		'city' : "NEW YORK",
		'state' : "NY",
		'borough' : "Manhattan",
		'zip' : "10035",
		'latitude' : "40.805927",
		'longitude' : "-73.940267",
		'assisted_units' : "19",
		'0br' : "0",
		'1br' : "0",
		'2br' : "18",
		'3br' : "0",
		'4br' : "0",
		'specific_target' : "1",
		'family' : "1",
		'elderly' : "0",
		'disabled' : "0",
		'homeless' : "0",
		'other' : "0",
		'other_specified' : ""
	},
	{
		'hud_id' : "NYA1991267",
		'name' : "SLOAN HOUSE",
		'address' : "330 W 34TH ST",
		'city' : "NEW YORK",
		'state' : "NY",
		'borough' : "Manhattan",
		'zip' : "10001",
		'latitude' : "40.752586",
		'longitude' : "-73.994856",
		'assisted_units' : "638",
		'0br' : "638",
		'1br' : "0",
		'2br' : "0",
		'3br' : "0",
		'4br' : "0",
		'specific_target' : "1",
		'family' : "1",
		'elderly' : "0",
		'disabled' : "0",
		'homeless' : "0",
		'other' : "0",
		'other_specified' : ""
	},
	{
		'hud_id' : "NYA1991275",
		'name' : "BRIDGE BUILDING",
		'address' : "210 E 124TH ST",
		'city' : "NEW YORK",
		'state' : "NY",
		'borough' : "Manhattan",
		'zip' : "10035",
		'latitude' : "40.802715",
		'longitude' : "-73.936027",
		'assisted_units' : "15",
		'0br' : "0",
		'1br' : "10",
		'2br' : "5",
		'3br' : "0",
		'4br' : "0",
		'specific_target' : "1",
		'family' : "0",
		'elderly' : "0",
		'disabled' : "0",
		'homeless' : "1",
		'other' : "1",
		'other_specified' : "UNSPECIFIED"
	},
	{
		'hud_id' : "NYA1991280",
		'name' : "THOMAS NORMAN DEVELOPMENT GROUP",
		'address' : "1092 ANDERSON AVE",
		'city' : "BRONX",
		'state' : "NY",
		'borough' : "Bronx",
		'zip' : "10452",
		'latitude' : "40.834488",
		'longitude' : "-73.925219",
		'assisted_units' : "57",
		'0br' : "1",
		'1br' : "27",
		'2br' : "25",
		'3br' : "4",
		'4br' : "0",
		'specific_target' : "1",
		'family' : "1",
		'elderly' : "0",
		'disabled' : "0",
		'homeless' : "1",
		'other' : "0",
		'other_specified' : ""
	},
	{
		'hud_id' : "NYA1991290",
		'name' : "W 117TH ST",
		'address' : "303 W 117TH ST",
		'city' : "NEW YORK",
		'state' : "NY",
		'borough' : "Manhattan",
		'zip' : "10026",
		'latitude' : "40.805277",
		'longitude' : "-73.954841",
		'assisted_units' : "46",
		'0br' : "0",
		'1br' : "20",
		'2br' : "6",
		'3br' : "20",
		'4br' : "0",
		'specific_target' : "1",
		'family' : "1",
		'elderly' : "0",
		'disabled' : "0",
		'homeless' : "0",
		'other' : "0",
		'other_specified' : ""
	},
	{
		'hud_id' : "NYA1991295",
		'name' : "W 150TH ST",
		'address' : "279 W 150TH ST",
		'city' : "NEW YORK",
		'state' : "NY",
		'borough' : "Manhattan",
		'zip' : "10039",
		'latitude' : "40.825535",
		'longitude' : "-73.938029",
		'assisted_units' : "15",
		'0br' : "0",
		'1br' : "4",
		'2br' : "8",
		'3br' : "3",
		'4br' : "0",
		'specific_target' : "1",
		'family' : "1",
		'elderly' : "0",
		'disabled' : "0",
		'homeless' : "0",
		'other' : "0",
		'other_specified' : ""
	},
	{
		'hud_id' : "NYA1992020",
		'name' : "1684 NELSON AVE",
		'address' : "1684 NELSON AVE",
		'city' : "BRONX",
		'state' : "NY",
		'borough' : "Bronx",
		'zip' : "10453",
		'latitude' : "40.8477",
		'longitude' : "-73.917368",
		'assisted_units' : "16",
		'0br' : "0",
		'1br' : "14",
		'2br' : "2",
		'3br' : "0",
		'4br' : "0",
		'specific_target' : "1",
		'family' : "1",
		'elderly' : "0",
		'disabled' : "0",
		'homeless' : "0",
		'other' : "1",
		'other_specified' : "UNSPECIFIED"
	},
	{
		'hud_id' : "NYA1992030",
		'name' : "175 E 96 ST PROJECT",
		'address' : "175 E 96TH ST",
		'city' : "NEW YORK",
		'state' : "NY",
		'borough' : "Manhattan",
		'zip' : "10128",
		'latitude' : "40.785315",
		'longitude' : "-73.949172",
		'assisted_units' : "105",
		'0br' : "21",
		'1br' : "65",
		'2br' : "19",
		'3br' : "0",
		'4br' : "0",
		'specific_target' : "1",
		'family' : "1",
		'elderly' : "0",
		'disabled' : "0",
		'homeless' : "0",
		'other' : "0",
		'other_specified' : ""
	},
	{
		'hud_id' : "NYA1992035",
		'name' : "35 MARCY PL",
		'address' : "35 MARCY PL",
		'city' : "BRONX",
		'state' : "NY",
		'borough' : "Bronx",
		'zip' : "10452",
		'latitude' : "40.838786",
		'longitude' : "-73.917609",
		'assisted_units' : "73",
		'0br' : "0",
		'1br' : "19",
		'2br' : "41",
		'3br' : "13",
		'4br' : "0",
		'specific_target' : "1",
		'family' : "1",
		'elderly' : "0",
		'disabled' : "0",
		'homeless' : "0",
		'other' : "0",
		'other_specified' : ""
	},
	{
		'hud_id' : "NYA1992060",
		'name' : "AFFORDABLE DWELLING UNIT",
		'address' : "1126 FULTON ST",
		'city' : "BROOKLYN",
		'state' : "NY",
		'borough' : "Brooklyn",
		'zip' : "11238",
		'latitude' : "40.681115",
		'longitude' : "-73.956362",
		'assisted_units' : "12",
		'0br' : "0",
		'1br' : "12",
		'2br' : "0",
		'3br' : "0",
		'4br' : "0",
		'specific_target' : "1",
		'family' : "1",
		'elderly' : "0",
		'disabled' : "0",
		'homeless' : "0",
		'other' : "0",
		'other_specified' : ""
	},
	{
		'hud_id' : "NYA1992065",
		'name' : "BEC NEW COMMUNITIES HDFC",
		'address' : "1430 BEDFORD AVE",
		'city' : "BROOKLYN",
		'state' : "NY",
		'borough' : "Brooklyn",
		'zip' : "11216",
		'latitude' : "40.674183",
		'longitude' : "-73.954015",
		'assisted_units' : "31",
		'0br' : "7",
		'1br' : "3",
		'2br' : "15",
		'3br' : "5",
		'4br' : "1",
		'specific_target' : "1",
		'family' : "1",
		'elderly' : "1",
		'disabled' : "0",
		'homeless' : "1",
		'other' : "1",
		'other_specified' : "UNSPECIFIED"
	},
	{
		'hud_id' : "NYA1992075",
		'name' : "BK-Y, PHASE II",
		'address' : "636 CLASSON AVE",
		'city' : "BROOKLYN",
		'state' : "NY",
		'borough' : "Brooklyn",
		'zip' : "11238",
		'latitude' : "40.678165",
		'longitude' : "-73.959106",
		'assisted_units' : "19",
		'0br' : "3",
		'1br' : "3",
		'2br' : "10",
		'3br' : "3",
		'4br' : "0",
		'specific_target' : "1",
		'family' : "1",
		'elderly' : "0",
		'disabled' : "0",
		'homeless' : "0",
		'other' : "0",
		'other_specified' : ""
	},
	{
		'hud_id' : "NYA1992105",
		'name' : "EAST HARLEM HSG",
		'address' : "111 E 100TH ST",
		'city' : "NEW YORK",
		'state' : "NY",
		'borough' : "Manhattan",
		'zip' : "10029",
		'latitude' : "40.78907",
		'longitude' : "-73.950173",
		'assisted_units' : "51",
		'0br' : "2",
		'1br' : "20",
		'2br' : "20",
		'3br' : "9",
		'4br' : "0",
		'specific_target' : "1",
		'family' : "0",
		'elderly' : "0",
		'disabled' : "0",
		'homeless' : "1",
		'other' : "0",
		'other_specified' : ""
	},
	{
		'hud_id' : "NYA1992110",
		'name' : "EJ MITCHELL TERRACE",
		'address' : "939 E 174TH ST",
		'city' : "BRONX",
		'state' : "NY",
		'borough' : "Bronx",
		'zip' : "10460",
		'latitude' : "40.837237",
		'longitude' : "-73.886793",
		'assisted_units' : "71",
		'0br' : "9",
		'1br' : "43",
		'2br' : "19",
		'3br' : "0",
		'4br' : "0",
		'specific_target' : "1",
		'family' : "1",
		'elderly' : "0",
		'disabled' : "0",
		'homeless' : "0",
		'other' : "0",
		'other_specified' : ""
	},
	{
		'hud_id' : "NYA1992175",
		'name' : "HELP HOUSE",
		'address' : "379 SNEDIKER AVE",
		'city' : "BROOKLYN",
		'state' : "NY",
		'borough' : "Brooklyn",
		'zip' : "11207",
		'latitude' : "40.665738",
		'longitude' : "-73.899845",
		'assisted_units' : "150",
		'0br' : "0",
		'1br' : "18",
		'2br' : "79",
		'3br' : "51",
		'4br' : "2",
		'specific_target' : "1",
		'family' : "1",
		'elderly' : "0",
		'disabled' : "0",
		'homeless' : "0",
		'other' : "0",
		'other_specified' : ""
	},
	{
		'hud_id' : "NYA1992200",
		'name' : "LESMHA",
		'address' : "8 AVENUE B",
		'city' : "NEW YORK",
		'state' : "NY",
		'borough' : "Manhattan",
		'zip' : "10009",
		'latitude' : "40.721708",
		'longitude' : "-73.983916",
		'assisted_units' : "34",
		'0br' : "0",
		'1br' : "7",
		'2br' : "15",
		'3br' : "12",
		'4br' : "0",
		'specific_target' : "1",
		'family' : "1",
		'elderly' : "0",
		'disabled' : "0",
		'homeless' : "1",
		'other' : "1",
		'other_specified' : "UNSPECIFIED"
	},
	{
		'hud_id' : "NYA1992215",
		'name' : "LUIS DOMENECH TERRACE",
		'address' : "366 HEWES ST",
		'city' : "BROOKLYN",
		'state' : "NY",
		'borough' : "Brooklyn",
		'zip' : "11211",
		'latitude' : "40.70779",
		'longitude' : "-73.951489",
		'assisted_units' : "52",
		'0br' : "0",
		'1br' : "7",
		'2br' : "45",
		'3br' : "0",
		'4br' : "0",
		'specific_target' : "1",
		'family' : "1",
		'elderly' : "0",
		'disabled' : "0",
		'homeless' : "0",
		'other' : "0",
		'other_specified' : ""
	},
	{
		'hud_id' : "NYA1992225",
		'name' : "MELNIC",
		'address' : "528 W 159TH ST",
		'city' : "NEW YORK",
		'state' : "NY",
		'borough' : "Manhattan",
		'zip' : "10032",
		'latitude' : "40.834355",
		'longitude' : "-73.942148",
		'assisted_units' : "84",
		'0br' : "21",
		'1br' : "23",
		'2br' : "0",
		'3br' : "40",
		'4br' : "0",
		'specific_target' : "1",
		'family' : "1",
		'elderly' : "0",
		'disabled' : "0",
		'homeless' : "0",
		'other' : "0",
		'other_specified' : ""
	},
	{
		'hud_id' : "NYA1992235",
		'name' : "MORNINGSIDE APTS",
		'address' : "2120 FREDERICK DOUGLASS BLVD",
		'city' : "NEW YORK",
		'state' : "NY",
		'borough' : "Manhattan",
		'zip' : "10026",
		'latitude' : "40.803397",
		'longitude' : "-73.95587",
		'assisted_units' : "27",
		'0br' : "27",
		'1br' : "0",
		'2br' : "0",
		'3br' : "0",
		'4br' : "0",
		'specific_target' : "1",
		'family' : "1",
		'elderly' : "0",
		'disabled' : "0",
		'homeless' : "0",
		'other' : "0",
		'other_specified' : ""
	},
	{
		'hud_id' : "NYA1992240",
		'name' : "MORNINGSIDE GARDENS",
		'address' : "2113 FREDERICK DOUGLASS BLVD",
		'city' : "NEW YORK",
		'state' : "NY",
		'borough' : "Manhattan",
		'zip' : "10026",
		'latitude' : "40.803248",
		'longitude' : "-73.956472",
		'assisted_units' : "86",
		'0br' : "0",
		'1br' : "55",
		'2br' : "31",
		'3br' : "0",
		'4br' : "0",
		'specific_target' : "1",
		'family' : "1",
		'elderly' : "0",
		'disabled' : "0",
		'homeless' : "0",
		'other' : "0",
		'other_specified' : ""
	},
	{
		'hud_id' : "NYA1992270",
		'name' : "SHERIDAN AVENUE PROJECT",
		'address' : "1048 SHERIDAN AVE",
		'city' : "BRONX",
		'state' : "NY",
		'borough' : "Bronx",
		'zip' : "10456",
		'latitude' : "40.830416",
		'longitude' : "-73.918666",
		'assisted_units' : "85",
		'0br' : "1",
		'1br' : "15",
		'2br' : "44",
		'3br' : "24",
		'4br' : "1",
		'specific_target' : "1",
		'family' : "1",
		'elderly' : "0",
		'disabled' : "0",
		'homeless' : "0",
		'other' : "0",
		'other_specified' : ""
	},
	{
		'hud_id' : "NYA1992280",
		'name' : "ST MARKS HOUSE, PHASE II",
		'address' : "470 MONTGOMERY ST",
		'city' : "BROOKLYN",
		'state' : "NY",
		'borough' : "Brooklyn",
		'zip' : "11225",
		'latitude' : "40.665138",
		'longitude' : "-73.949195",
		'assisted_units' : "82",
		'0br' : "1",
		'1br' : "18",
		'2br' : "53",
		'3br' : "10",
		'4br' : "0",
		'specific_target' : "1",
		'family' : "1",
		'elderly' : "0",
		'disabled' : "0",
		'homeless' : "0",
		'other' : "0",
		'other_specified' : ""
	},
	{
		'hud_id' : "NYA1992300",
		'name' : "WILLAMSBURG COURT",
		'address' : "19 MAUJER ST",
		'city' : "BROOKLYN",
		'state' : "NY",
		'borough' : "Brooklyn",
		'zip' : "11206",
		'latitude' : "40.710437",
		'longitude' : "-73.950384",
		'assisted_units' : "59",
		'0br' : "1",
		'1br' : "5",
		'2br' : "41",
		'3br' : "12",
		'4br' : "0",
		'specific_target' : "1",
		'family' : "1",
		'elderly' : "0",
		'disabled' : "0",
		'homeless' : "1",
		'other' : "0",
		'other_specified' : ""
	},
	{
		'hud_id' : "NYA1993005",
		'name' : "1064 WILLMOHR ST",
		'address' : "1064 WILLMOHR ST",
		'city' : "BROOKLYN",
		'state' : "NY",
		'borough' : "Brooklyn",
		'zip' : "11212",
		'latitude' : "40.656217",
		'longitude' : "-73.918659",
		'assisted_units' : "7",
		'0br' : "1",
		'1br' : "1",
		'2br' : "3",
		'3br' : "2",
		'4br' : "0",
		'specific_target' : "1",
		'family' : "1",
		'elderly' : "0",
		'disabled' : "0",
		'homeless' : "0",
		'other' : "0",
		'other_specified' : ""
	},
	{
		'hud_id' : "NYA1993010",
		'name' : "1700 HARRISON AVE",
		'address' : "1700 HARRISON AVE",
		'city' : "BRONX",
		'state' : "NY",
		'borough' : "Bronx",
		'zip' : "10453",
		'latitude' : "40.84873",
		'longitude' : "-73.914735",
		'assisted_units' : "76",
		'0br' : "0",
		'1br' : "11",
		'2br' : "52",
		'3br' : "13",
		'4br' : "0",
		'specific_target' : "1",
		'family' : "1",
		'elderly' : "0",
		'disabled' : "0",
		'homeless' : "0",
		'other' : "0",
		'other_specified' : ""
	},
	{
		'hud_id' : "NYA1993015",
		'name' : "239 W 116TH ST ASSOC",
		'address' : "239 W 116TH ST",
		'city' : "NEW YORK",
		'state' : "NY",
		'borough' : "Manhattan",
		'zip' : "10026",
		'latitude' : "40.804133",
		'longitude' : "-73.954245",
		'assisted_units' : "18",
		'0br' : "0",
		'1br' : "0",
		'2br' : "13",
		'3br' : "5",
		'4br' : "0",
		'specific_target' : "1",
		'family' : "1",
		'elderly' : "0",
		'disabled' : "0",
		'homeless' : "0",
		'other' : "0",
		'other_specified' : ""
	},
	{
		'hud_id' : "NYA1993020",
		'name' : "258 E 4TH ST",
		'address' : "258 E 4TH ST",
		'city' : "NEW YORK",
		'state' : "NY",
		'borough' : "Manhattan",
		'zip' : "10009",
		'latitude' : "40.722797",
		'longitude' : "-73.981826",
		'assisted_units' : "51",
		'0br' : "22",
		'1br' : "0",
		'2br' : "29",
		'3br' : "0",
		'4br' : "0",
		'specific_target' : "1",
		'family' : "1",
		'elderly' : "0",
		'disabled' : "0",
		'homeless' : "1",
		'other' : "1",
		'other_specified' : "UNSPECIFIED"
	},
	{
		'hud_id' : "NYA1993035",
		'name' : "AMSTERDAM AVE",
		'address' : "1411 AMSTERDAM AVE",
		'city' : "NEW YORK",
		'state' : "NY",
		'borough' : "Manhattan",
		'zip' : "10027",
		'latitude' : "40.815316",
		'longitude' : "-73.954603",
		'assisted_units' : "5",
		'0br' : "0",
		'1br' : "0",
		'2br' : "5",
		'3br' : "0",
		'4br' : "0",
		'specific_target' : "1",
		'family' : "1",
		'elderly' : "0",
		'disabled' : "0",
		'homeless' : "0",
		'other' : "0",
		'other_specified' : ""
	},
	{
		'hud_id' : "NYA1993045",
		'name' : "BRIDGEVIEW SENIOR HSG COMPLEX",
		'address' : "150 NICHOLAS AVE",
		'city' : "STATEN ISLAND",
		'state' : "NY",
		'borough' : "Staten Island",
		'zip' : "10302",
		'latitude' : "40.636436",
		'longitude' : "-74.140435",
		'assisted_units' : "38",
		'0br' : "0",
		'1br' : "38",
		'2br' : "0",
		'3br' : "0",
		'4br' : "0",
		'specific_target' : "1",
		'family' : "2",
		'elderly' : "1",
		'disabled' : "0",
		'homeless' : "0",
		'other' : "0",
		'other_specified' : ""
	},
	{
		'hud_id' : "NYA1993050",
		'name' : "BRONX 7A",
		'address' : "820 E 168TH ST",
		'city' : "BRONX",
		'state' : "NY",
		'borough' : "Bronx",
		'zip' : "10459",
		'latitude' : "40.828592",
		'longitude' : "-73.898934",
		'assisted_units' : "42",
		'0br' : "1",
		'1br' : "11",
		'2br' : "23",
		'3br' : "7",
		'4br' : "0",
		'specific_target' : "1",
		'family' : "1",
		'elderly' : "1",
		'disabled' : "0",
		'homeless' : "0",
		'other' : "0",
		'other_specified' : ""
	},
	{
		'hud_id' : "NYA1993055",
		'name' : "BX-10D",
		'address' : "883 DAWSON ST",
		'city' : "BRONX",
		'state' : "NY",
		'borough' : "Bronx",
		'zip' : "10459",
		'latitude' : "40.820052",
		'longitude' : "-73.897619",
		'assisted_units' : "58",
		'0br' : "0",
		'1br' : "15",
		'2br' : "36",
		'3br' : "7",
		'4br' : "0",
		'specific_target' : "1",
		'family' : "1",
		'elderly' : "0",
		'disabled' : "0",
		'homeless' : "0",
		'other' : "0",
		'other_specified' : ""
	},
	{
		'hud_id' : "NYA1993060",
		'name' : "BX-11F",
		'address' : "15 ELLIOT PL",
		'city' : "BRONX",
		'state' : "NY",
		'borough' : "Bronx",
		'zip' : "10452",
		'latitude' : "40.839584",
		'longitude' : "-73.91763",
		'assisted_units' : "24",
		'0br' : "0",
		'1br' : "6",
		'2br' : "17",
		'3br' : "1",
		'4br' : "0",
		'specific_target' : "1",
		'family' : "1",
		'elderly' : "0",
		'disabled' : "0",
		'homeless' : "1",
		'other' : "0",
		'other_specified' : ""
	},
	{
		'hud_id' : "NYA1993065",
		'name' : "BX-7F",
		'address' : "765 E 183RD ST",
		'city' : "BRONX",
		'state' : "NY",
		'borough' : "Bronx",
		'zip' : "10460",
		'latitude' : "40.851602",
		'longitude' : "-73.88356",
		'assisted_units' : "41",
		'0br' : "0",
		'1br' : "10",
		'2br' : "30",
		'3br' : "1",
		'4br' : "0",
		'specific_target' : "1",
		'family' : "1",
		'elderly' : "0",
		'disabled' : "0",
		'homeless' : "0",
		'other' : "0",
		'other_specified' : ""
	},
	{
		'hud_id' : "NYA1993110",
		'name' : "EAST NEW YORK",
		'address' : "2715 PITKIN AVE",
		'city' : "BROOKLYN",
		'state' : "NY",
		'borough' : "Brooklyn",
		'zip' : "11208",
		'latitude' : "40.675566",
		'longitude' : "-73.871947",
		'assisted_units' : "59",
		'0br' : "0",
		'1br' : "10",
		'2br' : "29",
		'3br' : "18",
		'4br' : "2",
		'specific_target' : "1",
		'family' : "1",
		'elderly' : "0",
		'disabled' : "0",
		'homeless' : "0",
		'other' : "1",
		'other_specified' : "UNSPECIFIED"
	},
	{
		'hud_id' : "NYA1993160",
		'name' : "GOUVERNEUR COURT",
		'address' : "621 WATER ST",
		'city' : "NEW YORK",
		'state' : "NY",
		'borough' : "Manhattan",
		'zip' : "10002",
		'latitude' : "40.711153",
		'longitude' : "-73.98368",
		'assisted_units' : "124",
		'0br' : "123",
		'1br' : "0",
		'2br' : "1",
		'3br' : "0",
		'4br' : "0",
		'specific_target' : "1",
		'family' : "1",
		'elderly' : "1",
		'disabled' : "1",
		'homeless' : "0",
		'other' : "1",
		'other_specified' : "UNSPECIFIED"
	},
	{
		'hud_id' : "NYA1993165",
		'name' : "HCCI PLAZA, PHASE I",
		'address' : "202 W 146TH ST",
		'city' : "NEW YORK",
		'state' : "NY",
		'borough' : "Manhattan",
		'zip' : "10039",
		'latitude' : "40.822264",
		'longitude' : "-73.938925",
		'assisted_units' : "76",
		'0br' : "0",
		'1br' : "33",
		'2br' : "43",
		'3br' : "0",
		'4br' : "0",
		'specific_target' : "1",
		'family' : "1",
		'elderly' : "0",
		'disabled' : "0",
		'homeless' : "1",
		'other' : "0",
		'other_specified' : ""
	},
	{
		'hud_id' : "NYA1993170",
		'name' : "HFA #9",
		'address' : "504 W 126TH ST",
		'city' : "NEW YORK",
		'state' : "NY",
		'borough' : "Manhattan",
		'zip' : "10027",
		'latitude' : "40.814179",
		'longitude' : "-73.955999",
		'assisted_units' : "17",
		'0br' : "0",
		'1br' : "4",
		'2br' : "13",
		'3br' : "0",
		'4br' : "0",
		'specific_target' : "1",
		'family' : "1",
		'elderly' : "0",
		'disabled' : "0",
		'homeless' : "0",
		'other' : "0",
		'other_specified' : ""
	},
	{
		'hud_id' : "NYA1993180",
		'name' : "LENOX 138",
		'address' : "539 LENOX AVE",
		'city' : "NEW YORK",
		'state' : "NY",
		'borough' : "Manhattan",
		'zip' : "10037",
		'latitude' : "40.815636",
		'longitude' : "-73.940071",
		'assisted_units' : "31",
		'0br' : "0",
		'1br' : "10",
		'2br' : "19",
		'3br' : "2",
		'4br' : "0",
		'specific_target' : "1",
		'family' : "1",
		'elderly' : "0",
		'disabled' : "0",
		'homeless' : "0",
		'other' : "0",
		'other_specified' : ""
	},
	{
		'hud_id' : "NYA1993190",
		'name' : "MERCY HOME SINGLE ROOM OCCUPANCY",
		'address' : "249 CLASSON AVE",
		'city' : "BROOKLYN",
		'state' : "NY",
		'borough' : "Brooklyn",
		'zip' : "11205",
		'latitude' : "40.692419",
		'longitude' : "-73.960552",
		'assisted_units' : "78",
		'0br' : "78",
		'1br' : "0",
		'2br' : "0",
		'3br' : "0",
		'4br' : "0",
		'specific_target' : "1",
		'family' : "1",
		'elderly' : "0",
		'disabled' : "0",
		'homeless' : "1",
		'other' : "0",
		'other_specified' : ""
	},
	{
		'hud_id' : "NYA1993195",
		'name' : "MORNINGSIDE PARTNERS, PHASE II",
		'address' : "355 W 115TH ST",
		'city' : "NEW YORK",
		'state' : "NY",
		'borough' : "Manhattan",
		'zip' : "10026",
		'latitude' : "40.804532",
		'longitude' : "-73.957298",
		'assisted_units' : "16",
		'0br' : "0",
		'1br' : "5",
		'2br' : "11",
		'3br' : "0",
		'4br' : "0",
		'specific_target' : "1",
		'family' : "1",
		'elderly' : "0",
		'disabled' : "0",
		'homeless' : "0",
		'other' : "0",
		'other_specified' : ""
	},
	{
		'hud_id' : "NYA1993205",
		'name' : "PARK NORTH ASSOC",
		'address' : "201 W 111TH ST",
		'city' : "NEW YORK",
		'state' : "NY",
		'borough' : "Manhattan",
		'zip' : "10026",
		'latitude' : "40.800221",
		'longitude' : "-73.954857",
		'assisted_units' : "35",
		'0br' : "4",
		'1br' : "12",
		'2br' : "9",
		'3br' : "10",
		'4br' : "0",
		'specific_target' : "1",
		'family' : "1",
		'elderly' : "0",
		'disabled' : "0",
		'homeless' : "0",
		'other' : "0",
		'other_specified' : ""
	},
	{
		'hud_id' : "NYA1993210",
		'name' : "PHHP SITE #3",
		'address' : "331 E 146TH ST",
		'city' : "BRONX",
		'state' : "NY",
		'borough' : "Bronx",
		'zip' : "10451",
		'latitude' : "40.81546",
		'longitude' : "-73.921087",
		'assisted_units' : "20",
		'0br' : "0",
		'1br' : "5",
		'2br' : "10",
		'3br' : "5",
		'4br' : "0",
		'specific_target' : "1",
		'family' : "1",
		'elderly' : "0",
		'disabled' : "0",
		'homeless' : "1",
		'other' : "0",
		'other_specified' : ""
	},
	{
		'hud_id' : "NYA1993215",
		'name' : "PHHP SITE #8",
		'address' : "611 PENNSYLVANIA AVE",
		'city' : "BROOKLYN",
		'state' : "NY",
		'borough' : "Brooklyn",
		'zip' : "11207",
		'latitude' : "40.662207",
		'longitude' : "-73.893114",
		'assisted_units' : "15",
		'0br' : "3",
		'1br' : "5",
		'2br' : "6",
		'3br' : "1",
		'4br' : "0",
		'specific_target' : "1",
		'family' : "1",
		'elderly' : "0",
		'disabled' : "0",
		'homeless' : "1",
		'other' : "0",
		'other_specified' : ""
	},
	{
		'hud_id' : "NYA1993235",
		'name' : "VACANT BUILDING PROGRAM MN90",
		'address' : "2268 FREDERICK DOUGLASS BLVD",
		'city' : "NEW YORK",
		'state' : "NY",
		'borough' : "Manhattan",
		'zip' : "10027",
		'latitude' : "40.80796",
		'longitude' : "-73.952536",
		'assisted_units' : "52",
		'0br' : "0",
		'1br' : "45",
		'2br' : "7",
		'3br' : "0",
		'4br' : "0",
		'specific_target' : "1",
		'family' : "1",
		'elderly' : "0",
		'disabled' : "0",
		'homeless' : "0",
		'other' : "0",
		'other_specified' : ""
	},
	{
		'hud_id' : "NYA1994005",
		'name' : "105 W 128 ST",
		'address' : "363 LENOX AVE",
		'city' : "NEW YORK",
		'state' : "NY",
		'borough' : "Manhattan",
		'zip' : "10027",
		'latitude' : "40.809929",
		'longitude' : "-73.944244",
		'assisted_units' : "19",
		'0br' : "0",
		'1br' : "17",
		'2br' : "2",
		'3br' : "0",
		'4br' : "0",
		'specific_target' : "1",
		'family' : "1",
		'elderly' : "0",
		'disabled' : "0",
		'homeless' : "0",
		'other' : "0",
		'other_specified' : ""
	},
	{
		'hud_id' : "NYA1994020",
		'name' : "1610 ASSOC",
		'address' : "1610 SAINT JOHNS PL",
		'city' : "BROOKLYN",
		'state' : "NY",
		'borough' : "Brooklyn",
		'zip' : "11233",
		'latitude' : "40.6701",
		'longitude' : "-73.925079",
		'assisted_units' : "32",
		'0br' : "0",
		'1br' : "6",
		'2br' : "21",
		'3br' : "5",
		'4br' : "0",
		'specific_target' : "1",
		'family' : "1",
		'elderly' : "0",
		'disabled' : "0",
		'homeless' : "0",
		'other' : "0",
		'other_specified' : ""
	},
	{
		'hud_id' : "NYA1994025",
		'name' : "1764 WEEKS AVE",
		'address' : "1764 WEEKS AVE",
		'city' : "BRONX",
		'state' : "NY",
		'borough' : "Bronx",
		'zip' : "10457",
		'latitude' : "40.845945",
		'longitude' : "-73.907264",
		'assisted_units' : "20",
		'0br' : "0",
		'1br' : "0",
		'2br' : "17",
		'3br' : "3",
		'4br' : "0",
		'specific_target' : "1",
		'family' : "1",
		'elderly' : "0",
		'disabled' : "0",
		'homeless' : "0",
		'other' : "0",
		'other_specified' : ""
	},
	{
		'hud_id' : "NYA1994040",
		'name' : "2301 FIRST AVE",
		'address' : "335 E 118TH ST",
		'city' : "NEW YORK",
		'state' : "NY",
		'borough' : "Manhattan",
		'zip' : "10035",
		'latitude' : "40.797824",
		'longitude' : "-73.93522",
		'assisted_units' : "28",
		'0br' : "0",
		'1br' : "10",
		'2br' : "13",
		'3br' : "5",
		'4br' : "0",
		'specific_target' : "1",
		'family' : "1",
		'elderly' : "0",
		'disabled' : "0",
		'homeless' : "0",
		'other' : "0",
		'other_specified' : ""
	},
	{
		'hud_id' : "NYA1994050",
		'name' : "600 TRINITY AVE",
		'address' : "600 TRINITY AVE",
		'city' : "BRONX",
		'state' : "NY",
		'borough' : "Bronx",
		'zip' : "10455",
		'latitude' : "40.814525",
		'longitude' : "-73.909405",
		'assisted_units' : "24",
		'0br' : "2",
		'1br' : "22",
		'2br' : "0",
		'3br' : "0",
		'4br' : "0",
		'specific_target' : "1",
		'family' : "1",
		'elderly' : "0",
		'disabled' : "0",
		'homeless' : "0",
		'other' : "0",
		'other_specified' : ""
	},
	{
		'hud_id' : "NYA1994070",
		'name' : "BK- 9A PARTNERS",
		'address' : "1023 LAFAYETTE AVE",
		'city' : "BROOKLYN",
		'state' : "NY",
		'borough' : "Brooklyn",
		'zip' : "11221",
		'latitude' : "40.692367",
		'longitude' : "-73.931041",
		'assisted_units' : "11",
		'0br' : "0",
		'1br' : "5",
		'2br' : "6",
		'3br' : "0",
		'4br' : "0",
		'specific_target' : "1",
		'family' : "1",
		'elderly' : "0",
		'disabled' : "0",
		'homeless' : "0",
		'other' : "0",
		'other_specified' : ""
	},
	{
		'hud_id' : "NYA1994075",
		'name' : "BK-12G",
		'address' : "1848 EASTERN PKWY",
		'city' : "BROOKLYN",
		'state' : "NY",
		'borough' : "Brooklyn",
		'zip' : "11233",
		'latitude' : "40.675466",
		'longitude' : "-73.907906",
		'assisted_units' : "22",
		'0br' : "0",
		'1br' : "11",
		'2br' : "11",
		'3br' : "0",
		'4br' : "0",
		'specific_target' : "1",
		'family' : "1",
		'elderly' : "0",
		'disabled' : "0",
		'homeless' : "0",
		'other' : "0",
		'other_specified' : ""
	},
	{
		'hud_id' : "NYA1994080",
		'name' : "BK-6A",
		'address' : "1566 EASTERN PKWY",
		'city' : "BROOKLYN",
		'state' : "NY",
		'borough' : "Brooklyn",
		'zip' : "11233",
		'latitude' : "40.67079",
		'longitude' : "-73.916206",
		'assisted_units' : "32",
		'0br' : "1",
		'1br' : "12",
		'2br' : "12",
		'3br' : "7",
		'4br' : "0",
		'specific_target' : "1",
		'family' : "1",
		'elderly' : "0",
		'disabled' : "0",
		'homeless' : "0",
		'other' : "0",
		'other_specified' : ""
	},
	{
		'hud_id' : "NYA1994085",
		'name' : "BK10-K",
		'address' : "1327 HANCOCK ST",
		'city' : "BROOKLYN",
		'state' : "NY",
		'borough' : "Brooklyn",
		'zip' : "11237",
		'latitude' : "40.694372",
		'longitude' : "-73.909337",
		'assisted_units' : "11",
		'0br' : "0",
		'1br' : "5",
		'2br' : "2",
		'3br' : "4",
		'4br' : "0",
		'specific_target' : "1",
		'family' : "1",
		'elderly' : "0",
		'disabled' : "0",
		'homeless' : "0",
		'other' : "0",
		'other_specified' : ""
	},
	{
		'hud_id' : "NYA1994095",
		'name' : "CROTONA TERRACE, 1714 CROTONA PARK EAST",
		'address' : "1714 CROTONA PARK E",
		'city' : "BRONX",
		'state' : "NY",
		'borough' : "Bronx",
		'zip' : "10460",
		'latitude' : "40.838057",
		'longitude' : "-73.888945",
		'assisted_units' : "51",
		'0br' : "1",
		'1br' : "11",
		'2br' : "32",
		'3br' : "7",
		'4br' : "0",
		'specific_target' : "1",
		'family' : "1",
		'elderly' : "0",
		'disabled' : "0",
		'homeless' : "1",
		'other' : "0",
		'other_specified' : ""
	},
	{
		'hud_id' : "NYA1994105",
		'name' : "FAMILY SUPPORT SYSTEMS UNLIMITED HDFC",
		'address' : "1975 CRESTON AVE",
		'city' : "BRONX",
		'state' : "NY",
		'borough' : "Bronx",
		'zip' : "10453",
		'latitude' : "40.850868",
		'longitude' : "-73.906799",
		'assisted_units' : "39",
		'0br' : "0",
		'1br' : "12",
		'2br' : "18",
		'3br' : "9",
		'4br' : "0",
		'specific_target' : "1",
		'family' : "1",
		'elderly' : "0",
		'disabled' : "0",
		'homeless' : "0",
		'other' : "0",
		'other_specified' : ""
	},
	{
		'hud_id' : "NYA1994175",
		'name' : "MACON STREET APTS",
		'address' : "2 MACON ST",
		'city' : "BROOKLYN",
		'state' : "NY",
		'borough' : "Brooklyn",
		'zip' : "11216",
		'latitude' : "40.680744",
		'longitude' : "-73.95113",
		'assisted_units' : "11",
		'0br' : "0",
		'1br' : "1",
		'2br' : "10",
		'3br' : "0",
		'4br' : "0",
		'specific_target' : "1",
		'family' : "1",
		'elderly' : "0",
		'disabled' : "0",
		'homeless' : "0",
		'other' : "0",
		'other_specified' : ""
	},
	{
		'hud_id' : "NYA1994195",
		'name' : "MELROSE APTS",
		'address' : "390 E 152ND ST",
		'city' : "BRONX",
		'state' : "NY",
		'borough' : "Bronx",
		'zip' : "10455",
		'latitude' : "40.818155",
		'longitude' : "-73.917202",
		'assisted_units' : "45",
		'0br' : "0",
		'1br' : "16",
		'2br' : "27",
		'3br' : "2",
		'4br' : "0",
		'specific_target' : "1",
		'family' : "1",
		'elderly' : "0",
		'disabled' : "0",
		'homeless' : "0",
		'other' : "0",
		'other_specified' : ""
	},
	{
		'hud_id' : "NYA1994200",
		'name' : "MN-9-0",
		'address' : "13 W 131ST ST",
		'city' : "NEW YORK",
		'state' : "NY",
		'borough' : "Manhattan",
		'zip' : "10037",
		'latitude' : "40.810697",
		'longitude' : "-73.940223",
		'assisted_units' : "30",
		'0br' : "0",
		'1br' : "6",
		'2br' : "18",
		'3br' : "6",
		'4br' : "0",
		'specific_target' : "1",
		'family' : "1",
		'elderly' : "0",
		'disabled' : "0",
		'homeless' : "0",
		'other' : "0",
		'other_specified' : ""
	},
	{
		'hud_id' : "NYA1994205",
		'name' : "NEW AMSTERDAM ASSOC",
		'address' : "128 EDGECOMBE AVE",
		'city' : "NEW YORK",
		'state' : "NY",
		'borough' : "Manhattan",
		'zip' : "10030",
		'latitude' : "40.820772",
		'longitude' : "-73.945002",
		'assisted_units' : "25",
		'0br' : "2",
		'1br' : "8",
		'2br' : "11",
		'3br' : "4",
		'4br' : "0",
		'specific_target' : "1",
		'family' : "1",
		'elderly' : "0",
		'disabled' : "0",
		'homeless' : "0",
		'other' : "0",
		'other_specified' : ""
	},
	{
		'hud_id' : "NYA1994235",
		'name' : "PHHP SITE # 1",
		'address' : "247 E 123RD ST",
		'city' : "NEW YORK",
		'state' : "NY",
		'borough' : "Manhattan",
		'zip' : "10035",
		'latitude' : "40.801682",
		'longitude' : "-73.93463",
		'assisted_units' : "39",
		'0br' : "0",
		'1br' : "4",
		'2br' : "31",
		'3br' : "4",
		'4br' : "0",
		'specific_target' : "1",
		'family' : "1",
		'elderly' : "0",
		'disabled' : "0",
		'homeless' : "1",
		'other' : "0",
		'other_specified' : ""
	},
	{
		'hud_id' : "NYA1994240",
		'name' : "PHHP SITE # 2",
		'address' : "2854 FREDERICK DOUGLASS BLVD",
		'city' : "NEW YORK",
		'state' : "NY",
		'borough' : "Manhattan",
		'zip' : "10039",
		'latitude' : "40.827218",
		'longitude' : "-73.938469",
		'assisted_units' : "93",
		'0br' : "0",
		'1br' : "5",
		'2br' : "64",
		'3br' : "23",
		'4br' : "1",
		'specific_target' : "1",
		'family' : "1",
		'elderly' : "0",
		'disabled' : "0",
		'homeless' : "1",
		'other' : "0",
		'other_specified' : ""
	},
	{
		'hud_id' : "NYA1994245",
		'name' : "PHHP SITE 4",
		'address' : "1268 CLAY AVE",
		'city' : "BRONX",
		'state' : "NY",
		'borough' : "Bronx",
		'zip' : "10456",
		'latitude' : "40.833472",
		'longitude' : "-73.909763",
		'assisted_units' : "33",
		'0br' : "0",
		'1br' : "0",
		'2br' : "33",
		'3br' : "0",
		'4br' : "0",
		'specific_target' : "1",
		'family' : "0",
		'elderly' : "0",
		'disabled' : "0",
		'homeless' : "1",
		'other' : "0",
		'other_specified' : ""
	},
	{
		'hud_id' : "NYA1994305",
		'name' : "TIFFANY MEWS APTS",
		'address' : "63 TIFFANY PL",
		'city' : "BROOKLYN",
		'state' : "NY",
		'borough' : "Brooklyn",
		'zip' : "11231",
		'latitude' : "40.686202",
		'longitude' : "-74.000922",
		'assisted_units' : "69",
		'0br' : "0",
		'1br' : "35",
		'2br' : "26",
		'3br' : "8",
		'4br' : "0",
		'specific_target' : "1",
		'family' : "1",
		'elderly' : "0",
		'disabled' : "0",
		'homeless' : "0",
		'other' : "0",
		'other_specified' : ""
	},
	{
		'hud_id' : "NYA1994310",
		'name' : "TIMES SQUARE HOTEL",
		'address' : "253 W 43RD ST",
		'city' : "NEW YORK",
		'state' : "NY",
		'borough' : "Manhattan",
		'zip' : "10036",
		'latitude' : "40.757457",
		'longitude' : "-73.987816",
		'assisted_units' : "535",
		'0br' : "535",
		'1br' : "0",
		'2br' : "0",
		'3br' : "0",
		'4br' : "0",
		'specific_target' : "1",
		'family' : "1",
		'elderly' : "0",
		'disabled' : "0",
		'homeless' : "0",
		'other' : "0",
		'other_specified' : ""
	},
	{
		'hud_id' : "NYA1995005",
		'name' : "528 W 153RD ST",
		'address' : "528 W 153RD ST",
		'city' : "NEW YORK",
		'state' : "NY",
		'borough' : "Manhattan",
		'zip' : "10031",
		'latitude' : "40.830738",
		'longitude' : "-73.945477",
		'assisted_units' : "35",
		'0br' : "1",
		'1br' : "0",
		'2br' : "25",
		'3br' : "9",
		'4br' : "0",
		'specific_target' : "1",
		'family' : "0",
		'elderly' : "0",
		'disabled' : "0",
		'homeless' : "1",
		'other' : "0",
		'other_specified' : ""
	},
	{
		'hud_id' : "NYA1995020",
		'name' : "1791 LEX ASSOC",
		'address' : "175 E 111TH ST",
		'city' : "NEW YORK",
		'state' : "NY",
		'borough' : "Manhattan",
		'zip' : "10029",
		'latitude' : "40.795249",
		'longitude' : "-73.943052",
		'assisted_units' : "18",
		'0br' : "0",
		'1br' : "12",
		'2br' : "6",
		'3br' : "0",
		'4br' : "0",
		'specific_target' : "1",
		'family' : "1",
		'elderly' : "0",
		'disabled' : "0",
		'homeless' : "1",
		'other' : "0",
		'other_specified' : ""
	},
	{
		'hud_id' : "NYA1995025",
		'name' : "2021 APTS",
		'address' : "492 MANHATTAN AVE",
		'city' : "NEW YORK",
		'state' : "NY",
		'borough' : "Manhattan",
		'zip' : "10027",
		'latitude' : "40.807699",
		'longitude' : "-73.954632",
		'assisted_units' : "68",
		'0br' : "0",
		'1br' : "22",
		'2br' : "24",
		'3br' : "22",
		'4br' : "0",
		'specific_target' : "1",
		'family' : "1",
		'elderly' : "0",
		'disabled' : "0",
		'homeless' : "0",
		'other' : "0",
		'other_specified' : ""
	},
	{
		'hud_id' : "NYA1995030",
		'name' : "2492 FREDERICK DOUGLASS BLVD",
		'address' : "2492 FREDERICK DOUGLASS BLVD",
		'city' : "NEW YORK",
		'state' : "NY",
		'borough' : "Manhattan",
		'zip' : "10030",
		'latitude' : "40.815445",
		'longitude' : "-73.947082",
		'assisted_units' : "15",
		'0br' : "0",
		'1br' : "0",
		'2br' : "15",
		'3br' : "0",
		'4br' : "0",
		'specific_target' : "1",
		'family' : "1",
		'elderly' : "0",
		'disabled' : "0",
		'homeless' : "0",
		'other' : "0",
		'other_specified' : ""
	},
	{
		'hud_id' : "NYA1995050",
		'name' : "320 MANHATTAN AVE",
		'address' : "320 MANHATTAN AVE",
		'city' : "NEW YORK",
		'state' : "NY",
		'borough' : "Manhattan",
		'zip' : "10026",
		'latitude' : "40.803491",
		'longitude' : "-73.957704",
		'assisted_units' : "33",
		'0br' : "0",
		'1br' : "27",
		'2br' : "4",
		'3br' : "2",
		'4br' : "0",
		'specific_target' : "1",
		'family' : "1",
		'elderly' : "0",
		'disabled' : "0",
		'homeless' : "0",
		'other' : "0",
		'other_specified' : ""
	},
	{
		'hud_id' : "NYA1995070",
		'name' : "ACP APTS",
		'address' : "2053 ADAM CLAYTON POWELL JR BLVD",
		'city' : "NEW YORK",
		'state' : "NY",
		'borough' : "Manhattan",
		'zip' : "10027",
		'latitude' : "40.807296",
		'longitude' : "-73.949198",
		'assisted_units' : "16",
		'0br' : "0",
		'1br' : "11",
		'2br' : "5",
		'3br' : "0",
		'4br' : "0",
		'specific_target' : "1",
		'family' : "1",
		'elderly' : "0",
		'disabled' : "0",
		'homeless' : "1",
		'other' : "0",
		'other_specified' : ""
	},
	{
		'hud_id' : "NYA1995080",
		'name' : "BK 12F",
		'address' : "363 SUMPTER ST",
		'city' : "BROOKLYN",
		'state' : "NY",
		'borough' : "Brooklyn",
		'zip' : "11233",
		'latitude' : "40.68121",
		'longitude' : "-73.910811",
		'assisted_units' : "11",
		'0br' : "3",
		'1br' : "1",
		'2br' : "7",
		'3br' : "0",
		'4br' : "0",
		'specific_target' : "1",
		'family' : "1",
		'elderly' : "0",
		'disabled' : "0",
		'homeless' : "0",
		'other' : "0",
		'other_specified' : ""
	},
	{
		'hud_id' : "NYA1995085",
		'name' : "BOSTON ROAD APTS",
		'address' : "1356 BOSTON RD",
		'city' : "BRONX",
		'state' : "NY",
		'borough' : "Bronx",
		'zip' : "10456",
		'latitude' : "40.832063",
		'longitude' : "-73.898598",
		'assisted_units' : "35",
		'0br' : "0",
		'1br' : "17",
		'2br' : "15",
		'3br' : "3",
		'4br' : "0",
		'specific_target' : "1",
		'family' : "1",
		'elderly' : "0",
		'disabled' : "0",
		'homeless' : "0",
		'other' : "0",
		'other_specified' : ""
	},
	{
		'hud_id' : "NYA1995090",
		'name' : "BRONX - 8A TEAM ASSOCIATE",
		'address' : "1473 BRYANT AVE",
		'city' : "BRONX",
		'state' : "NY",
		'borough' : "Bronx",
		'zip' : "10460",
		'latitude' : "40.832124",
		'longitude' : "-73.887944",
		'assisted_units' : "24",
		'0br' : "0",
		'1br' : "12",
		'2br' : "7",
		'3br' : "5",
		'4br' : "0",
		'specific_target' : "1",
		'family' : "1",
		'elderly' : "0",
		'disabled' : "0",
		'homeless' : "1",
		'other' : "0",
		'other_specified' : ""
	},
	{
		'hud_id' : "NYA1995100",
		'name' : "BX-10A",
		'address' : "1038 BOSTON RD",
		'city' : "BRONX",
		'state' : "NY",
		'borough' : "Bronx",
		'zip' : "10456",
		'latitude' : "40.825951",
		'longitude' : "-73.90649",
		'assisted_units' : "89",
		'0br' : "6",
		'1br' : "33",
		'2br' : "44",
		'3br' : "6",
		'4br' : "0",
		'specific_target' : "1",
		'family' : "1",
		'elderly' : "0",
		'disabled' : "0",
		'homeless' : "1",
		'other' : "0",
		'other_specified' : ""
	},
	{
		'hud_id' : "NYA1995110",
		'name' : "CEDAR TREMONT HOUSE",
		'address' : "264 W TREMONT AVE",
		'city' : "BRONX",
		'state' : "NY",
		'borough' : "Bronx",
		'zip' : "10453",
		'latitude' : "40.853063",
		'longitude' : "-73.919471",
		'assisted_units' : "17",
		'0br' : "0",
		'1br' : "0",
		'2br' : "5",
		'3br' : "12",
		'4br' : "0",
		'specific_target' : "1",
		'family' : "1",
		'elderly' : "0",
		'disabled' : "0",
		'homeless' : "0",
		'other' : "1",
		'other_specified' : "UNSPECIFIED"
	},
	{
		'hud_id' : "NYA1995120",
		'name' : "CLINTON ASSOC FOR A RENEWED ENVIRONMENT",
		'address' : "350 W 49TH ST",
		'city' : "NEW YORK",
		'state' : "NY",
		'borough' : "Manhattan",
		'zip' : "10019",
		'latitude' : "40.762505",
		'longitude' : "-73.989005",
		'assisted_units' : "10",
		'0br' : "0",
		'1br' : "8",
		'2br' : "0",
		'3br' : "2",
		'4br' : "0",
		'specific_target' : "1",
		'family' : "1",
		'elderly' : "0",
		'disabled' : "0",
		'homeless' : "0",
		'other' : "0",
		'other_specified' : ""
	},
	{
		'hud_id' : "NYA1995125",
		'name' : "CLM, PHASE III",
		'address' : "1 W 137TH ST",
		'city' : "NEW YORK",
		'state' : "NY",
		'borough' : "Manhattan",
		'zip' : "10037",
		'latitude' : "40.814197",
		'longitude' : "-73.936576",
		'assisted_units' : "30",
		'0br' : "2",
		'1br' : "16",
		'2br' : "12",
		'3br' : "0",
		'4br' : "0",
		'specific_target' : "1",
		'family' : "1",
		'elderly' : "0",
		'disabled' : "0",
		'homeless' : "0",
		'other' : "0",
		'other_specified' : ""
	},
	{
		'hud_id' : "NYA1995140",
		'name' : "CROTONA APTS",
		'address' : "1382 CROTONA AVE",
		'city' : "BRONX",
		'state' : "NY",
		'borough' : "Bronx",
		'zip' : "10456",
		'latitude' : "40.833457",
		'longitude' : "-73.89786",
		'assisted_units' : "53",
		'0br' : "2",
		'1br' : "15",
		'2br' : "28",
		'3br' : "8",
		'4br' : "0",
		'specific_target' : "1",
		'family' : "1",
		'elderly' : "0",
		'disabled' : "0",
		'homeless' : "0",
		'other' : "0",
		'other_specified' : ""
	},
	{
		'hud_id' : "NYA1995155",
		'name' : "FIFTH AVENUE COMMITTEE INC",
		'address' : "77 GARFIELD PL",
		'city' : "BROOKLYN",
		'state' : "NY",
		'borough' : "Brooklyn",
		'zip' : "11215",
		'latitude' : "40.674707",
		'longitude' : "-73.981569",
		'assisted_units' : "21",
		'0br' : "0",
		'1br' : "11",
		'2br' : "8",
		'3br' : "2",
		'4br' : "0",
		'specific_target' : "1",
		'family' : "1",
		'elderly' : "0",
		'disabled' : "0",
		'homeless' : "1",
		'other' : "0",
		'other_specified' : ""
	},
	{
		'hud_id' : "NYA1995165",
		'name' : "GREEN AVENUE",
		'address' : "759 GREENE AVE",
		'city' : "BROOKLYN",
		'state' : "NY",
		'borough' : "Brooklyn",
		'zip' : "11221",
		'latitude' : "40.690089",
		'longitude' : "-73.937922",
		'assisted_units' : "22",
		'0br' : "1",
		'1br' : "4",
		'2br' : "17",
		'3br' : "0",
		'4br' : "0",
		'specific_target' : "1",
		'family' : "1",
		'elderly' : "0",
		'disabled' : "0",
		'homeless' : "0",
		'other' : "0",
		'other_specified' : ""
	},
	{
		'hud_id' : "NYA1995170",
		'name' : "HELP 14TH STREET",
		'address' : "113 E 13TH ST",
		'city' : "NEW YORK",
		'state' : "NY",
		'borough' : "Manhattan",
		'zip' : "10003",
		'latitude' : "40.73354",
		'longitude' : "-73.989472",
		'assisted_units' : "93",
		'0br' : "0",
		'1br' : "30",
		'2br' : "43",
		'3br' : "20",
		'4br' : "0",
		'specific_target' : "1",
		'family' : "0",
		'elderly' : "0",
		'disabled' : "0",
		'homeless' : "1",
		'other' : "0",
		'other_specified' : ""
	},
	{
		'hud_id' : "NYA1995175",
		'name' : "HFA #10",
		'address' : "1105 MADISON ST",
		'city' : "BROOKLYN",
		'state' : "NY",
		'borough' : "Brooklyn",
		'zip' : "11221",
		'latitude' : "40.691878",
		'longitude' : "-73.916476",
		'assisted_units' : "18",
		'0br' : "0",
		'1br' : "0",
		'2br' : "12",
		'3br' : "6",
		'4br' : "0",
		'specific_target' : "1",
		'family' : "1",
		'elderly' : "0",
		'disabled' : "0",
		'homeless' : "0",
		'other' : "0",
		'other_specified' : ""
	},
	{
		'hud_id' : "NYA1995180",
		'name' : "HFA #11",
		'address' : "503 W 133RD ST",
		'city' : "NEW YORK",
		'state' : "NY",
		'borough' : "Manhattan",
		'zip' : "10027",
		'latitude' : "40.817794",
		'longitude' : "-73.9532",
		'assisted_units' : "69",
		'0br' : "1",
		'1br' : "2",
		'2br' : "48",
		'3br' : "18",
		'4br' : "0",
		'specific_target' : "1",
		'family' : "1",
		'elderly' : "0",
		'disabled' : "0",
		'homeless' : "0",
		'other' : "0",
		'other_specified' : ""
	},
	{
		'hud_id' : "NYA1995185",
		'name' : "HFA #13",
		'address' : "160 HARMAN ST",
		'city' : "BROOKLYN",
		'state' : "NY",
		'borough' : "Brooklyn",
		'zip' : "11221",
		'latitude' : "40.696641",
		'longitude' : "-73.921804",
		'assisted_units' : "41",
		'0br' : "0",
		'1br' : "0",
		'2br' : "41",
		'3br' : "0",
		'4br' : "0",
		'specific_target' : "1",
		'family' : "1",
		'elderly' : "0",
		'disabled' : "0",
		'homeless' : "0",
		'other' : "0",
		'other_specified' : ""
	},
	{
		'hud_id' : "NYA1995190",
		'name' : "HFA #14",
		'address' : "920 PROSPECT AVE",
		'city' : "BRONX",
		'state' : "NY",
		'borough' : "Bronx",
		'zip' : "10459",
		'latitude' : "40.821567",
		'longitude' : "-73.90061",
		'assisted_units' : "68",
		'0br' : "0",
		'1br' : "5",
		'2br' : "37",
		'3br' : "26",
		'4br' : "0",
		'specific_target' : "1",
		'family' : "0",
		'elderly' : "0",
		'disabled' : "0",
		'homeless' : "1",
		'other' : "0",
		'other_specified' : ""
	},
	{
		'hud_id' : "NYA1995195",
		'name' : "HFA #17",
		'address' : "2240 WALTON AVE",
		'city' : "BRONX",
		'state' : "NY",
		'borough' : "Bronx",
		'zip' : "10453",
		'latitude' : "40.857277",
		'longitude' : "-73.903224",
		'assisted_units' : "83",
		'0br' : "1",
		'1br' : "8",
		'2br' : "34",
		'3br' : "40",
		'4br' : "0",
		'specific_target' : "1",
		'family' : "1",
		'elderly' : "0",
		'disabled' : "0",
		'homeless' : "0",
		'other' : "0",
		'other_specified' : ""
	},
	{
		'hud_id' : "NYA1995200",
		'name' : "HOPE EQUITIES",
		'address' : "827 LAFAYETTE AVE",
		'city' : "BROOKLYN",
		'state' : "NY",
		'borough' : "Brooklyn",
		'zip' : "11221",
		'latitude' : "40.691385",
		'longitude' : "-73.939692",
		'assisted_units' : "39",
		'0br' : "0",
		'1br' : "13",
		'2br' : "24",
		'3br' : "2",
		'4br' : "0",
		'specific_target' : "1",
		'family' : "1",
		'elderly' : "0",
		'disabled' : "0",
		'homeless' : "0",
		'other' : "0",
		'other_specified' : ""
	},
	{
		'hud_id' : "NYA1995255",
		'name' : "MID CITY STRUCTURES",
		'address' : "2264 FREDERICK DOUGLASS BLVD",
		'city' : "NEW YORK",
		'state' : "NY",
		'borough' : "Manhattan",
		'zip' : "10027",
		'latitude' : "40.807833",
		'longitude' : "-73.95263",
		'assisted_units' : "9",
		'0br' : "4",
		'1br' : "1",
		'2br' : "4",
		'3br' : "0",
		'4br' : "0",
		'specific_target' : "1",
		'family' : "1",
		'elderly' : "0",
		'disabled' : "0",
		'homeless' : "0",
		'other' : "0",
		'other_specified' : ""
	},
	{
		'hud_id' : "NYA1995260",
		'name' : "MLK VACANT BUILDING",
		'address' : "162 E 109TH ST",
		'city' : "NEW YORK",
		'state' : "NY",
		'borough' : "Manhattan",
		'zip' : "10029",
		'latitude' : "40.793808",
		'longitude' : "-73.944445",
		'assisted_units' : "13",
		'0br' : "0",
		'1br' : "3",
		'2br' : "10",
		'3br' : "0",
		'4br' : "0",
		'specific_target' : "1",
		'family' : "1",
		'elderly' : "0",
		'disabled' : "0",
		'homeless' : "0",
		'other' : "0",
		'other_specified' : ""
	},
	{
		'hud_id' : "NYA1995265",
		'name' : "MORNINGSIDE APTS, PHASE III",
		'address' : "303 W 114TH ST",
		'city' : "NEW YORK",
		'state' : "NY",
		'borough' : "Manhattan",
		'zip' : "10026",
		'latitude' : "40.80331",
		'longitude' : "-73.956351",
		'assisted_units' : "5",
		'0br' : "1",
		'1br' : "4",
		'2br' : "0",
		'3br' : "0",
		'4br' : "0",
		'specific_target' : "1",
		'family' : "1",
		'elderly' : "0",
		'disabled' : "0",
		'homeless' : "0",
		'other' : "0",
		'other_specified' : ""
	},
	{
		'hud_id' : "NYA1995285",
		'name' : "NOSTRAND AVENUE",
		'address' : "480 NOSTRAND AVE",
		'city' : "BROOKLYN",
		'state' : "NY",
		'borough' : "Brooklyn",
		'zip' : "11216",
		'latitude' : "40.680867",
		'longitude' : "-73.949888",
		'assisted_units' : "13",
		'0br' : "0",
		'1br' : "6",
		'2br' : "4",
		'3br' : "3",
		'4br' : "0",
		'specific_target' : "1",
		'family' : "1",
		'elderly' : "0",
		'disabled' : "0",
		'homeless' : "0",
		'other' : "0",
		'other_specified' : ""
	},
	{
		'hud_id' : "NYA1995295",
		'name' : "PARKSIDE SENIOR CITIZENS APTS",
		'address' : "160 HEBERTON AVE",
		'city' : "STATEN ISLAND",
		'state' : "NY",
		'borough' : "Staten Island",
		'zip' : "10302",
		'latitude' : "40.636495",
		'longitude' : "-74.131813",
		'assisted_units' : "42",
		'0br' : "11",
		'1br' : "16",
		'2br' : "15",
		'3br' : "0",
		'4br' : "0",
		'specific_target' : "1",
		'family' : "2",
		'elderly' : "1",
		'disabled' : "0",
		'homeless' : "0",
		'other' : "0",
		'other_specified' : ""
	},
	{
		'hud_id' : "NYA1995305",
		'name' : "PARTICIPATION LOAN PROGRAM",
		'address' : "9 W 137TH ST",
		'city' : "NEW YORK",
		'state' : "NY",
		'borough' : "Manhattan",
		'zip' : "10037",
		'latitude' : "40.814461",
		'longitude' : "-73.937204",
		'assisted_units' : "9",
		'0br' : "0",
		'1br' : "5",
		'2br' : "4",
		'3br' : "0",
		'4br' : "0",
		'specific_target' : "1",
		'family' : "1",
		'elderly' : "0",
		'disabled' : "0",
		'homeless' : "0",
		'other' : "0",
		'other_specified' : ""
	},
	{
		'hud_id' : "NYA1995315",
		'name' : "QUATRO LEX APTS",
		'address' : "157 E 104TH ST",
		'city' : "NEW YORK",
		'state' : "NY",
		'borough' : "Manhattan",
		'zip' : "10029",
		'latitude' : "40.790992",
		'longitude' : "-73.946926",
		'assisted_units' : "21",
		'0br' : "13",
		'1br' : "2",
		'2br' : "6",
		'3br' : "0",
		'4br' : "0",
		'specific_target' : "1",
		'family' : "1",
		'elderly' : "0",
		'disabled' : "0",
		'homeless' : "0",
		'other' : "1",
		'other_specified' : "UNSPECIFIED"
	},
	{
		'hud_id' : "NYA1995345",
		'name' : "TELLER AVENUE REHAB",
		'address' : "290 E 163RD ST",
		'city' : "BRONX",
		'state' : "NY",
		'borough' : "Bronx",
		'zip' : "10451",
		'latitude' : "40.826826",
		'longitude' : "-73.916781",
		'assisted_units' : "16",
		'0br' : "1",
		'1br' : "8",
		'2br' : "5",
		'3br' : "2",
		'4br' : "0",
		'specific_target' : "1",
		'family' : "1",
		'elderly' : "0",
		'disabled' : "0",
		'homeless' : "0",
		'other' : "0",
		'other_specified' : ""
	},
	{
		'hud_id' : "NYA1995375",
		'name' : "UPACA SITE 7 RESIDENTIAL PROJECT",
		'address' : "1900 LEXINGTON AVE",
		'city' : "NEW YORK",
		'state' : "NY",
		'borough' : "Manhattan",
		'zip' : "10035",
		'latitude' : "40.800008",
		'longitude' : "-73.940852",
		'assisted_units' : "119",
		'0br' : "1",
		'1br' : "3",
		'2br' : "89",
		'3br' : "26",
		'4br' : "0",
		'specific_target' : "1",
		'family' : "1",
		'elderly' : "0",
		'disabled' : "0",
		'homeless' : "0",
		'other' : "0",
		'other_specified' : ""
	},
	{
		'hud_id' : "NYA1996005",
		'name' : "1065 SUMMIT AVE",
		'address' : "1065 SUMMIT AVE",
		'city' : "BRONX",
		'state' : "NY",
		'borough' : "Bronx",
		'zip' : "10452",
		'latitude' : "40.834866",
		'longitude' : "-73.929505",
		'assisted_units' : "25",
		'0br' : "1",
		'1br' : "5",
		'2br' : "14",
		'3br' : "5",
		'4br' : "0",
		'specific_target' : "1",
		'family' : "1",
		'elderly' : "0",
		'disabled' : "0",
		'homeless' : "0",
		'other' : "0",
		'other_specified' : ""
	},
	{
		'hud_id' : "NYA1996010",
		'name' : "111-113 DEVELOPMENT ASSOC",
		'address' : "110 W 111TH ST",
		'city' : "NEW YORK",
		'state' : "NY",
		'borough' : "Manhattan",
		'zip' : "10026",
		'latitude' : "40.799039",
		'longitude' : "-73.952938",
		'assisted_units' : "24",
		'0br' : "1",
		'1br' : "11",
		'2br' : "12",
		'3br' : "0",
		'4br' : "0",
		'specific_target' : "1",
		'family' : "1",
		'elderly' : "0",
		'disabled' : "0",
		'homeless' : "0",
		'other' : "0",
		'other_specified' : ""
	},
	{
		'hud_id' : "NYA1996025",
		'name' : "460 W 126TH ST",
		'address' : "460 W 126TH ST",
		'city' : "NEW YORK",
		'state' : "NY",
		'borough' : "Manhattan",
		'zip' : "10027",
		'latitude' : "40.813331",
		'longitude' : "-73.955265",
		'assisted_units' : "8",
		'0br' : "0",
		'1br' : "1",
		'2br' : "7",
		'3br' : "0",
		'4br' : "0",
		'specific_target' : "1",
		'family' : "1",
		'elderly' : "0",
		'disabled' : "0",
		'homeless' : "0",
		'other' : "0",
		'other_specified' : ""
	},
	{
		'hud_id' : "NYA1996030",
		'name' : "1544 PARK PL",
		'address' : "1544 PARK PL",
		'city' : "BROOKLYN",
		'state' : "NY",
		'borough' : "Brooklyn",
		'zip' : "11213",
		'latitude' : "40.671946",
		'longitude' : "-73.926172",
		'assisted_units' : "33",
		'0br' : "0",
		'1br' : "25",
		'2br' : "8",
		'3br' : "0",
		'4br' : "0",
		'specific_target' : "1",
		'family' : "1",
		'elderly' : "0",
		'disabled' : "0",
		'homeless' : "0",
		'other' : "0",
		'other_specified' : ""
	},
	{
		'hud_id' : "NYA1996035",
		'name' : "166 BROOKLYN AVE",
		'address' : "166 BROOKLYN AVE",
		'city' : "BROOKLYN",
		'state' : "NY",
		'borough' : "Brooklyn",
		'zip' : "11213",
		'latitude' : "40.674157",
		'longitude' : "-73.944745",
		'assisted_units' : "24",
		'0br' : "0",
		'1br' : "10",
		'2br' : "6",
		'3br' : "8",
		'4br' : "0",
		'specific_target' : "1",
		'family' : "1",
		'elderly' : "0",
		'disabled' : "0",
		'homeless' : "0",
		'other' : "0",
		'other_specified' : ""
	},
	{
		'hud_id' : "NYA1996040",
		'name' : "1765 DAVIDSON AVE",
		'address' : "1765 DAVIDSON AVE",
		'city' : "BRONX",
		'state' : "NY",
		'borough' : "Bronx",
		'zip' : "10453",
		'latitude' : "40.848769",
		'longitude' : "-73.912992",
		'assisted_units' : "39",
		'0br' : "3",
		'1br' : "7",
		'2br' : "26",
		'3br' : "3",
		'4br' : "0",
		'specific_target' : "1",
		'family' : "1",
		'elderly' : "0",
		'disabled' : "0",
		'homeless' : "0",
		'other' : "0",
		'other_specified' : ""
	},
	{
		'hud_id' : "NYA1996050",
		'name' : "352 LENOX AVE",
		'address' : "352 LENOX AVE",
		'city' : "NEW YORK",
		'state' : "NY",
		'borough' : "Manhattan",
		'zip' : "10027",
		'latitude' : "40.809427",
		'longitude' : "-73.94394",
		'assisted_units' : "17",
		'0br' : "0",
		'1br' : "0",
		'2br' : "0",
		'3br' : "17",
		'4br' : "0",
		'specific_target' : "1",
		'family' : "1",
		'elderly' : "0",
		'disabled' : "0",
		'homeless' : "0",
		'other' : "0",
		'other_specified' : ""
	},
	{
		'hud_id' : "NYA1996055",
		'name' : "524 W 159TH ST",
		'address' : "524 W 159TH ST",
		'city' : "NEW YORK",
		'state' : "NY",
		'borough' : "Manhattan",
		'zip' : "10032",
		'latitude' : "40.834302",
		'longitude' : "-73.942021",
		'assisted_units' : "20",
		'0br' : "0",
		'1br' : "2",
		'2br' : "18",
		'3br' : "0",
		'4br' : "0",
		'specific_target' : "1",
		'family' : "1",
		'elderly' : "0",
		'disabled' : "0",
		'homeless' : "0",
		'other' : "0",
		'other_specified' : ""
	},
	{
		'hud_id' : "NYA1996065",
		'name' : "988 BOSTON RD",
		'address' : "988 BOSTON RD",
		'city' : "BRONX",
		'state' : "NY",
		'borough' : "Bronx",
		'zip' : "10456",
		'latitude' : "40.825164",
		'longitude' : "-73.907557",
		'assisted_units' : "18",
		'0br' : "1",
		'1br' : "11",
		'2br' : "3",
		'3br' : "3",
		'4br' : "0",
		'specific_target' : "1",
		'family' : "1",
		'elderly' : "0",
		'disabled' : "0",
		'homeless' : "0",
		'other' : "0",
		'other_specified' : ""
	},
	{
		'hud_id' : "NYA1996070",
		'name' : "996 HEGEMAN APTS",
		'address' : "996 HEGEMAN AVE",
		'city' : "BROOKLYN",
		'state' : "NY",
		'borough' : "Brooklyn",
		'zip' : "11208",
		'latitude' : "40.666551",
		'longitude' : "-73.875855",
		'assisted_units' : "13",
		'0br' : "0",
		'1br' : "5",
		'2br' : "8",
		'3br' : "0",
		'4br' : "0",
		'specific_target' : "1",
		'family' : "1",
		'elderly' : "0",
		'disabled' : "0",
		'homeless' : "1",
		'other' : "0",
		'other_specified' : ""
	},
	{
		'hud_id' : "NYA1996075",
		'name' : "AURORA",
		'address' : "475 W 57TH ST",
		'city' : "NEW YORK",
		'state' : "NY",
		'borough' : "Manhattan",
		'zip' : "10019",
		'latitude' : "40.769091",
		'longitude' : "-73.988041",
		'assisted_units' : "178",
		'0br' : "0",
		'1br' : "27",
		'2br' : "114",
		'3br' : "33",
		'4br' : "4",
		'specific_target' : "1",
		'family' : "1",
		'elderly' : "0",
		'disabled' : "0",
		'homeless' : "0",
		'other' : "1",
		'other_specified' : "UNSPECIFIED"
	},
	{
		'hud_id' : "NYA1996085",
		'name' : "BEDFORD COMMUNITY DEV CORP",
		'address' : "2255 BEDFORD AVE",
		'city' : "BROOKLYN",
		'state' : "NY",
		'borough' : "Brooklyn",
		'zip' : "11226",
		'latitude' : "40.649144",
		'longitude' : "-73.955579",
		'assisted_units' : "45",
		'0br' : "0",
		'1br' : "25",
		'2br' : "20",
		'3br' : "0",
		'4br' : "0",
		'specific_target' : "1",
		'family' : "1",
		'elderly' : "0",
		'disabled' : "0",
		'homeless' : "0",
		'other' : "0",
		'other_specified' : ""
	},
	{
		'hud_id' : "NYA1996090",
		'name' : "BK 12 E CORP",
		'address' : "347 LINCOLN PL",
		'city' : "BROOKLYN",
		'state' : "NY",
		'borough' : "Brooklyn",
		'zip' : "11238",
		'latitude' : "40.673325",
		'longitude' : "-73.964559",
		'assisted_units' : "51",
		'0br' : "0",
		'1br' : "13",
		'2br' : "33",
		'3br' : "5",
		'4br' : "0",
		'specific_target' : "1",
		'family' : "1",
		'elderly' : "0",
		'disabled' : "0",
		'homeless' : "0",
		'other' : "0",
		'other_specified' : ""
	},
	{
		'hud_id' : "NYA1996100",
		'name' : "CANAAN HOUSE RESIDENTIAL PROJECT",
		'address' : "8 W 118TH ST",
		'city' : "NEW YORK",
		'state' : "NY",
		'borough' : "Manhattan",
		'zip' : "10026",
		'latitude' : "40.801983",
		'longitude' : "-73.945991",
		'assisted_units' : "116",
		'0br' : "17",
		'1br' : "36",
		'2br' : "43",
		'3br' : "16",
		'4br' : "4",
		'specific_target' : "1",
		'family' : "1",
		'elderly' : "0",
		'disabled' : "0",
		'homeless' : "0",
		'other' : "0",
		'other_specified' : ""
	},
	{
		'hud_id' : "NYA1996125",
		'name' : "CHEEVER/CARROLL GARDEN",
		'address' : "296 COLUMBIA ST",
		'city' : "BROOKLYN",
		'state' : "NY",
		'borough' : "Brooklyn",
		'zip' : "11231",
		'latitude' : "40.682034",
		'longitude' : "-74.004361",
		'assisted_units' : "14",
		'0br' : "0",
		'1br' : "7",
		'2br' : "7",
		'3br' : "0",
		'4br' : "0",
		'specific_target' : "1",
		'family' : "0",
		'elderly' : "0",
		'disabled' : "0",
		'homeless' : "0",
		'other' : "1",
		'other_specified' : "UNSPECIFIED"
	},
	{
		'hud_id' : "NYA1996190",
		'name' : "HARBOR COURT, PHASE II",
		'address' : "85 BRABANT ST",
		'city' : "STATEN ISLAND",
		'state' : "NY",
		'borough' : "Staten Island",
		'zip' : "10303",
		'latitude' : "40.63177",
		'longitude' : "-74.161126",
		'assisted_units' : "46",
		'0br' : "0",
		'1br' : "18",
		'2br' : "28",
		'3br' : "0",
		'4br' : "0",
		'specific_target' : "1",
		'family' : "1",
		'elderly' : "0",
		'disabled' : "0",
		'homeless' : "0",
		'other' : "0",
		'other_specified' : ""
	},
	{
		'hud_id' : "NYA1996205",
		'name' : "HPD/PLP/HOME PROGRAM",
		'address' : "1452 BEDFORD AVE",
		'city' : "BROOKLYN",
		'state' : "NY",
		'borough' : "Brooklyn",
		'zip' : "11216",
		'latitude' : "40.67358",
		'longitude' : "-73.954226",
		'assisted_units' : "8",
		'0br' : "1",
		'1br' : "0",
		'2br' : "7",
		'3br' : "0",
		'4br' : "0",
		'specific_target' : "1",
		'family' : "1",
		'elderly' : "0",
		'disabled' : "0",
		'homeless' : "0",
		'other' : "0",
		'other_specified' : ""
	},
	{
		'hud_id' : "NYA1996210",
		'name' : "HUGHES AVENUE CRESCENT",
		'address' : "2120 HUGHES AVE",
		'city' : "BRONX",
		'state' : "NY",
		'borough' : "Bronx",
		'zip' : "10457",
		'latitude' : "40.84964",
		'longitude' : "-73.889804",
		'assisted_units' : "62",
		'0br' : "0",
		'1br' : "2",
		'2br' : "53",
		'3br' : "7",
		'4br' : "0",
		'specific_target' : "1",
		'family' : "1",
		'elderly' : "0",
		'disabled' : "0",
		'homeless' : "0",
		'other' : "1",
		'other_specified' : "UNSPECIFIED"
	},
	{
		'hud_id' : "NYA1996220",
		'name' : "LENOX APTS",
		'address' : "342 LENOX AVE",
		'city' : "NEW YORK",
		'state' : "NY",
		'borough' : "Manhattan",
		'zip' : "10027",
		'latitude' : "40.809043",
		'longitude' : "-73.944219",
		'assisted_units' : "17",
		'0br' : "0",
		'1br' : "10",
		'2br' : "7",
		'3br' : "0",
		'4br' : "0",
		'specific_target' : "1",
		'family' : "1",
		'elderly' : "1",
		'disabled' : "0",
		'homeless' : "0",
		'other' : "0",
		'other_specified' : ""
	},
	{
		'hud_id' : "NYA1996235",
		'name' : "MARTENSE STREET APTS",
		'address' : "293 MARTENSE ST",
		'city' : "BROOKLYN",
		'state' : "NY",
		'borough' : "Brooklyn",
		'zip' : "11226",
		'latitude' : "40.651863",
		'longitude' : "-73.949339",
		'assisted_units' : "26",
		'0br' : "0",
		'1br' : "14",
		'2br' : "8",
		'3br' : "4",
		'4br' : "0",
		'specific_target' : "1",
		'family' : "1",
		'elderly' : "0",
		'disabled' : "0",
		'homeless' : "0",
		'other' : "0",
		'other_specified' : ""
	},
	{
		'hud_id' : "NYA1996250",
		'name' : "NELSON AVENUE APTS",
		'address' : "1422 NELSON AVE",
		'city' : "BRONX",
		'state' : "NY",
		'borough' : "Bronx",
		'zip' : "10452",
		'latitude' : "40.842583",
		'longitude' : "-73.921692",
		'assisted_units' : "43",
		'0br' : "0",
		'1br' : "23",
		'2br' : "15",
		'3br' : "5",
		'4br' : "0",
		'specific_target' : "1",
		'family' : "1",
		'elderly' : "0",
		'disabled' : "0",
		'homeless' : "0",
		'other' : "0",
		'other_specified' : ""
	},
	{
		'hud_id' : "NYA1996260",
		'name' : "PARK TERRACE_APARTMENTS",
		'address' : "702 E 103RD ST",
		'city' : "BROOKLYN",
		'state' : "NY",
		'borough' : "Brooklyn",
		'zip' : "11236",
		'latitude' : "40.647919",
		'longitude' : "-73.897942",
		'assisted_units' : "71",
		'0br' : "0",
		'1br' : "18",
		'2br' : "35",
		'3br' : "18",
		'4br' : "0",
		'specific_target' : "1",
		'family' : "1",
		'elderly' : "0",
		'disabled' : "1",
		'homeless' : "0",
		'other' : "0",
		'other_specified' : ""
	},
	{
		'hud_id' : "NYA1996275",
		'name' : "REST HOUSE",
		'address' : "165 CONOVER ST",
		'city' : "BROOKLYN",
		'state' : "NY",
		'borough' : "Brooklyn",
		'zip' : "11231",
		'latitude' : "40.678314",
		'longitude' : "-74.01368",
		'assisted_units' : "36",
		'0br' : "0",
		'1br' : "12",
		'2br' : "24",
		'3br' : "0",
		'4br' : "0",
		'specific_target' : "1",
		'family' : "0",
		'elderly' : "0",
		'disabled' : "0",
		'homeless' : "0",
		'other' : "1",
		'other_specified' : "UNSPECIFIED"
	},
	{
		'hud_id' : "NYA1996280",
		'name' : "ROCKAWAY AVENUE PROJECT",
		'address' : "171 ROCKAWAY AVE",
		'city' : "BROOKLYN",
		'state' : "NY",
		'borough' : "Brooklyn",
		'zip' : "11233",
		'latitude' : "40.676816",
		'longitude' : "-73.910669",
		'assisted_units' : "25",
		'0br' : "0",
		'1br' : "8",
		'2br' : "17",
		'3br' : "0",
		'4br' : "0",
		'specific_target' : "1",
		'family' : "1",
		'elderly' : "0",
		'disabled' : "0",
		'homeless' : "0",
		'other' : "0",
		'other_specified' : ""
	},
	{
		'hud_id' : "NYA1996295",
		'name' : "SYCAMORE HILL",
		'address' : "1740 GRAND AVE",
		'city' : "BRONX",
		'state' : "NY",
		'borough' : "Bronx",
		'zip' : "10453",
		'latitude' : "40.849459",
		'longitude' : "-73.913099",
		'assisted_units' : "79",
		'0br' : "3",
		'1br' : "33",
		'2br' : "36",
		'3br' : "7",
		'4br' : "0",
		'specific_target' : "1",
		'family' : "1",
		'elderly' : "0",
		'disabled' : "0",
		'homeless' : "0",
		'other' : "0",
		'other_specified' : ""
	},
	{
		'hud_id' : "NYA1996310",
		'name' : "WOODRUFF PROJECT",
		'address' : "165 WOODRUFF AVE",
		'city' : "BROOKLYN",
		'state' : "NY",
		'borough' : "Brooklyn",
		'zip' : "11226",
		'latitude' : "40.654713",
		'longitude' : "-73.960558",
		'assisted_units' : "27",
		'0br' : "5",
		'1br' : "13",
		'2br' : "9",
		'3br' : "0",
		'4br' : "0",
		'specific_target' : "1",
		'family' : "0",
		'elderly' : "0",
		'disabled' : "0",
		'homeless' : "0",
		'other' : "1",
		'other_specified' : "UNSPECIFIED"
	},
	{
		'hud_id' : "NYA1996320",
		'name' : "VACANT BUILDING PROGRAM",
		'address' : "1473 AMSTERDAM AVE",
		'city' : "NEW YORK",
		'state' : "NY",
		'borough' : "Manhattan",
		'zip' : "10027",
		'latitude' : "40.8173",
		'longitude' : "-73.95316",
		'assisted_units' : "7",
		'0br' : "0",
		'1br' : "5",
		'2br' : "1",
		'3br' : "1",
		'4br' : "0",
		'specific_target' : "1",
		'family' : "1",
		'elderly' : "0",
		'disabled' : "0",
		'homeless' : "0",
		'other' : "0",
		'other_specified' : ""
	},
	{
		'hud_id' : "NYA1997010",
		'name' : "1374 BOSTON RD",
		'address' : "1374 BOSTON RD",
		'city' : "BRONX",
		'state' : "NY",
		'borough' : "Bronx",
		'zip' : "10456",
		'latitude' : "40.832436",
		'longitude' : "-73.898102",
		'assisted_units' : "14",
		'0br' : "0",
		'1br' : "0",
		'2br' : "14",
		'3br' : "0",
		'4br' : "0",
		'specific_target' : "1",
		'family' : "0",
		'elderly' : "0",
		'disabled' : "0",
		'homeless' : "0",
		'other' : "1",
		'other_specified' : "UNSPECIFIED"
	},
	{
		'hud_id' : "NYA1997015",
		'name' : "1437 SHAKESPEARE AVE",
		'address' : "1437 SHAKESPEARE AVE",
		'city' : "BRONX",
		'state' : "NY",
		'borough' : "Bronx",
		'zip' : "10452",
		'latitude' : "40.84301",
		'longitude' : "-73.92074",
		'assisted_units' : "28",
		'0br' : "0",
		'1br' : "0",
		'2br' : "14",
		'3br' : "11",
		'4br' : "3",
		'specific_target' : "1",
		'family' : "1",
		'elderly' : "0",
		'disabled' : "0",
		'homeless' : "0",
		'other' : "1",
		'other_specified' : "UNSPECIFIED"
	},
	{
		'hud_id' : "NYA1997020",
		'name' : "21ST CENTURY DEV PARTNERS",
		'address' : "861 GREENE AVE",
		'city' : "BROOKLYN",
		'state' : "NY",
		'borough' : "Brooklyn",
		'zip' : "11221",
		'latitude' : "40.690603",
		'longitude' : "-73.933457",
		'assisted_units' : "21",
		'0br' : "0",
		'1br' : "8",
		'2br' : "12",
		'3br' : "1",
		'4br' : "0",
		'specific_target' : "1",
		'family' : "1",
		'elderly' : "0",
		'disabled' : "0",
		'homeless' : "0",
		'other' : "0",
		'other_specified' : ""
	},
	{
		'hud_id' : "NYA1997025",
		'name' : "221 W 135TH ST",
		'address' : "221 W 135TH ST",
		'city' : "NEW YORK",
		'state' : "NY",
		'borough' : "Manhattan",
		'zip' : "10030",
		'latitude' : "40.815744",
		'longitude' : "-73.944308",
		'assisted_units' : "8",
		'0br' : "0",
		'1br' : "0",
		'2br' : "8",
		'3br' : "0",
		'4br' : "0",
		'specific_target' : "1",
		'family' : "1",
		'elderly' : "0",
		'disabled' : "0",
		'homeless' : "0",
		'other' : "0",
		'other_specified' : ""
	},
	{
		'hud_id' : "NYA1997030",
		'name' : "353 & 357 S 3RD ST PROJECT",
		'address' : "353 S 3RD ST",
		'city' : "BROOKLYN",
		'state' : "NY",
		'borough' : "Brooklyn",
		'zip' : "11211",
		'latitude' : "40.709283",
		'longitude' : "-73.953164",
		'assisted_units' : "60",
		'0br' : "0",
		'1br' : "5",
		'2br' : "38",
		'3br' : "14",
		'4br' : "3",
		'specific_target' : "1",
		'family' : "1",
		'elderly' : "0",
		'disabled' : "0",
		'homeless' : "0",
		'other' : "0",
		'other_specified' : ""
	},