[
	{
		"hud_id" : "NYA0000006",
		"name" : "1865 Second Ave Assoc",
		"address" : "1865 2ND AVE",
		"city" : "NEW YORK",
		"state" : "NY",
		"borough" : "Manhattan",
		"zip" : "10029",
		"latitude" : "40.78444",
		"longitude" : "-73.947191",
		"assisted_units" : "17",
		"0br" : "0",
		"1br" : "0",
		"2br" : "17",
		"3br" : "0",
		"4br" : "0",
		"specific_target" : "1",
		"family" : "2",
		"elderly" : "1",
		"disabled" : "0",
		"homeless" : "0",
		"other" : "0",
		"other_specified" : ""
	},
	{
		"hud_id" : "NYA0000007",
		"name" : "196 Rockaway Pkwy",
		"address" : "196 ROCKAWAY PKWY",
		"city" : "BROOKLYN",
		"state" : "NY",
		"borough" : "Brooklyn",
		"zip" : "11212",
		"latitude" : "40.662139",
		"longitude" : "-73.921539",
		"assisted_units" : "18",
		"0br" : "0",
		"1br" : "12",
		"2br" : "4",
		"3br" : "2",
		"4br" : "0",
		"specific_target" : "1",
		"family" : "1",
		"elderly" : "0",
		"disabled" : "0",
		"homeless" : "0",
		"other" : "0",
		"other_specified" : ""
	},
	{
		"hud_id" : "NYA0000011",
		"name" : "2051 Grand Concourse",
		"address" : "2051 GRAND CONCOURSE",
		"city" : "BRONX",
		"state" : "NY",
		"borough" : "Bronx",
		"zip" : "10453",
		"latitude" : "40.852709",
		"longitude" : "-73.903863",
		"assisted_units" : "16",
		"0br" : "0",
		"1br" : "6",
		"2br" : "8",
		"3br" : "2",
		"4br" : "0",
		"specific_target" : "1",
		"family" : "1",
		"elderly" : "0",
		"disabled" : "0",
		"homeless" : "0",
		"other" : "0",
		"other_specified" : ""
	},
	{
		"hud_id" : "NYA0000029",
		"name" : "91 Woodruff Ave",
		"address" : "91 WOODRUFF AVE",
		"city" : "BROOKLYN",
		"state" : "NY",
		"borough" : "Brooklyn",
		"zip" : "11226",
		"latitude" : "40.653704",
		"longitude" : "-73.963167",
		"assisted_units" : "14",
		"0br" : "0",
		"1br" : "8",
		"2br" : "4",
		"3br" : "2",
		"4br" : "0",
		"specific_target" : "1",
		"family" : "1",
		"elderly" : "0",
		"disabled" : "0",
		"homeless" : "0",
		"other" : "0",
		"other_specified" : ""
	},
	{
		"hud_id" : "NYA0000039",
		"name" : "Ballard Development",
		"address" : "300 W 116TH ST",
		"city" : "NEW YORK",
		"state" : "NY",
		"borough" : "Manhattan",
		"zip" : "10026",
		"latitude" : "40.804387",
		"longitude" : "-73.955725",
		"assisted_units" : "43",
		"0br" : "43",
		"1br" : "0",
		"2br" : "0",
		"3br" : "0",
		"4br" : "0",
		"specific_target" : "1",
		"family" : "0",
		"elderly" : "0",
		"disabled" : "0",
		"homeless" : "1",
		"other" : "0",
		"other_specified" : ""
	},
	{
		"hud_id" : "NYA0000046",
		"name" : "Berry Street",
		"address" : "101 S 8TH ST",
		"city" : "BROOKLYN",
		"state" : "NY",
		"borough" : "Brooklyn",
		"zip" : "11249",
		"latitude" : "40.709832",
		"longitude" : "-73.965226",
		"assisted_units" : "25",
		"0br" : "4",
		"1br" : "4",
		"2br" : "1",
		"3br" : "16",
		"4br" : "0",
		"specific_target" : "1",
		"family" : "1",
		"elderly" : "0",
		"disabled" : "0",
		"homeless" : "0",
		"other" : "1",
		"other_specified" : "UNSPECIFIED"
	},
	{
		"hud_id" : "NYA0000049",
		"name" : "Build-crotona Assoc",
		"address" : "824 E 181ST ST",
		"city" : "BRONX",
		"state" : "NY",
		"borough" : "Bronx",
		"zip" : "10460",
		"latitude" : "40.84664",
		"longitude" : "-73.883916",
		"assisted_units" : "32",
		"0br" : "4",
		"1br" : "14",
		"2br" : "9",
		"3br" : "5",
		"4br" : "0",
		"specific_target" : "1",
		"family" : "1",
		"elderly" : "0",
		"disabled" : "0",
		"homeless" : "1",
		"other" : "0",
		"other_specified" : ""
	},
	{
		"hud_id" : "NYA0000051",
		"name" : "C-h Development Group Assoc",
		"address" : "1728 AMSTERDAM AVE",
		"city" : "NEW YORK",
		"state" : "NY",
		"borough" : "Manhattan",
		"zip" : "10031",
		"latitude" : "40.825714",
		"longitude" : "-73.947501",
		"assisted_units" : "35",
		"0br" : "0",
		"1br" : "18",
		"2br" : "16",
		"3br" : "1",
		"4br" : "0",
		"specific_target" : "1",
		"family" : "1",
		"elderly" : "0",
		"disabled" : "0",
		"homeless" : "0",
		"other" : "0",
		"other_specified" : ""
	},
	{
		"hud_id" : "NYA0000060",
		"name" : "615 W 173rd St",
		"address" : "615 W 173RD ST",
		"city" : "NEW YORK",
		"state" : "NY",
		"borough" : "Manhattan",
		"zip" : "10032",
		"latitude" : "40.844799",
		"longitude" : "-73.938634",
		"assisted_units" : "15",
		"0br" : "1",
		"1br" : "6",
		"2br" : "5",
		"3br" : "1",
		"4br" : "2",
		"specific_target" : "1",
		"family" : "2",
		"elderly" : "1",
		"disabled" : "1",
		"homeless" : "0",
		"other" : "0",
		"other_specified" : ""
	},
	{
		"hud_id" : "NYA0000068",
		"name" : "Eldridge Street",
		"address" : "176 ELDRIDGE ST",
		"city" : "NEW YORK",
		"state" : "NY",
		"borough" : "Manhattan",
		"zip" : "10002",
		"latitude" : "40.720278",
		"longitude" : "-73.990648",
		"assisted_units" : "60",
		"0br" : "25",
		"1br" : "16",
		"2br" : "19",
		"3br" : "0",
		"4br" : "0",
		"specific_target" : "1",
		"family" : "1",
		"elderly" : "1",
		"disabled" : "0",
		"homeless" : "0",
		"other" : "0",
		"other_specified" : ""
	},
	{
		"hud_id" : "NYA0000081",
		"name" : "Gates Avenue Assoc, Phase Ii",
		"address" : "650 GATES AVE",
		"city" : "BROOKLYN",
		"state" : "NY",
		"borough" : "Brooklyn",
		"zip" : "11221",
		"latitude" : "40.687401",
		"longitude" : "-73.938892",
		"assisted_units" : "160",
		"0br" : "0",
		"1br" : "40",
		"2br" : "48",
		"3br" : "72",
		"4br" : "0",
		"specific_target" : "1",
		"family" : "2",
		"elderly" : "1",
		"disabled" : "0",
		"homeless" : "0",
		"other" : "0",
		"other_specified" : ""
	},
	{
		"hud_id" : "NYA0000084",
		"name" : "Golden Gates",
		"address" : "1091 GATES AVE",
		"city" : "BROOKLYN",
		"state" : "NY",
		"borough" : "Brooklyn",
		"zip" : "11221",
		"latitude" : "40.690087",
		"longitude" : "-73.921752",
		"assisted_units" : "22",
		"0br" : "4",
		"1br" : "12",
		"2br" : "6",
		"3br" : "0",
		"4br" : "0",
		"specific_target" : "1",
		"family" : "1",
		"elderly" : "0",
		"disabled" : "0",
		"homeless" : "0",
		"other" : "0",
		"other_specified" : ""
	},
	{
		"hud_id" : "NYA0000088",
		"name" : "Heights Investment Group",
		"address" : "518 W 204TH ST",
		"city" : "NEW YORK",
		"state" : "NY",
		"borough" : "Manhattan",
		"zip" : "10034",
		"latitude" : "40.863281",
		"longitude" : "-73.920956",
		"assisted_units" : "9",
		"0br" : "0",
		"1br" : "7",
		"2br" : "2",
		"3br" : "0",
		"4br" : "0",
		"specific_target" : "1",
		"family" : "1",
		"elderly" : "0",
		"disabled" : "0",
		"homeless" : "0",
		"other" : "0",
		"other_specified" : ""
	},
	{
		"hud_id" : "NYA0000089",
		"name" : "Hewitt House Hsg Partnership Inc",
		"address" : "1470 SAINT JOHNS PL",
		"city" : "BROOKLYN",
		"state" : "NY",
		"borough" : "Brooklyn",
		"zip" : "11213",
		"latitude" : "40.670351",
		"longitude" : "-73.929676",
		"assisted_units" : "55",
		"0br" : "0",
		"1br" : "23",
		"2br" : "30",
		"3br" : "2",
		"4br" : "0",
		"specific_target" : "1",
		"family" : "1",
		"elderly" : "0",
		"disabled" : "0",
		"homeless" : "1",
		"other" : "0",
		"other_specified" : ""
	},
	{
		"hud_id" : "NYA0000096",
		"name" : "Irving Stockholm Assoc Inc",
		"address" : "22 IRVING AVE",
		"city" : "BROOKLYN",
		"state" : "NY",
		"borough" : "Brooklyn",
		"zip" : "11237",
		"latitude" : "40.705084",
		"longitude" : "-73.925405",
		"assisted_units" : "22",
		"0br" : "1",
		"1br" : "6",
		"2br" : "11",
		"3br" : "4",
		"4br" : "0",
		"specific_target" : "1",
		"family" : "1",
		"elderly" : "0",
		"disabled" : "0",
		"homeless" : "0",
		"other" : "0",
		"other_specified" : ""
	},
	{
		"hud_id" : "NYA0000098",
		"name" : "Kowal House",
		"address" : "149 MANHATTAN AVE",
		"city" : "NEW YORK",
		"state" : "NY",
		"borough" : "Manhattan",
		"zip" : "10025",
		"latitude" : "40.799134",
		"longitude" : "-73.961356",
		"assisted_units" : "72",
		"0br" : "72",
		"1br" : "0",
		"2br" : "0",
		"3br" : "0",
		"4br" : "0",
		"specific_target" : "1",
		"family" : "0",
		"elderly" : "0",
		"disabled" : "0",
		"homeless" : "0",
		"other" : "1",
		"other_specified" : "UNSPECIFIED"
	},
	{
		"hud_id" : "NYA0000106",
		"name" : "Lihc Project",
		"address" : "80 ANDROS AVE",
		"city" : "STATEN ISLAND",
		"state" : "NY",
		"borough" : "Staten Island",
		"zip" : "10303",
		"latitude" : "40.63576",
		"longitude" : "-74.162626",
		"assisted_units" : "38",
		"0br" : "4",
		"1br" : "15",
		"2br" : "19",
		"3br" : "0",
		"4br" : "0",
		"specific_target" : "1",
		"family" : "1",
		"elderly" : "0",
		"disabled" : "0",
		"homeless" : "0",
		"other" : "0",
		"other_specified" : ""
	},
	{
		"hud_id" : "NYA0000109",
		"name" : "Loisaida Family House",
		"address" : "250 E 4TH ST",
		"city" : "NEW YORK",
		"state" : "NY",
		"borough" : "Manhattan",
		"zip" : "10009",
		"latitude" : "40.723138",
		"longitude" : "-73.98262",
		"assisted_units" : "34",
		"0br" : "0",
		"1br" : "1",
		"2br" : "28",
		"3br" : "5",
		"4br" : "0",
		"specific_target" : "1",
		"family" : "1",
		"elderly" : "0",
		"disabled" : "0",
		"homeless" : "0",
		"other" : "0",
		"other_specified" : ""
	},
	{
		"hud_id" : "NYA0000116",
		"name" : "Mapes Court Assoc",
		"address" : "2158 MAPES AVE",
		"city" : "BRONX",
		"state" : "NY",
		"borough" : "Bronx",
		"zip" : "10460",
		"latitude" : "40.847863",
		"longitude" : "-73.88421",
		"assisted_units" : "91",
		"0br" : "0",
		"1br" : "7",
		"2br" : "68",
		"3br" : "16",
		"4br" : "0",
		"specific_target" : "1",
		"family" : "1",
		"elderly" : "0",
		"disabled" : "0",
		"homeless" : "0",
		"other" : "0",
		"other_specified" : ""
	},
	{
		"hud_id" : "NYA0000120",
		"name" : "1197 Grand Concourse",
		"address" : "1197 GRAND CONCOURSE",
		"city" : "BRONX",
		"state" : "NY",
		"borough" : "Bronx",
		"zip" : "10452",
		"latitude" : "40.834382",
		"longitude" : "-73.918357",
		"assisted_units" : "26",
		"0br" : "0",
		"1br" : "8",
		"2br" : "13",
		"3br" : "5",
		"4br" : "0",
		"specific_target" : "1",
		"family" : "1",
		"elderly" : "0",
		"disabled" : "0",
		"homeless" : "0",
		"other" : "0",
		"other_specified" : ""
	},
	{
		"hud_id" : "NYA0000126",
		"name" : "Morningside Development Group",
		"address" : "163 MORNINGSIDE AVE",
		"city" : "NEW YORK",
		"state" : "NY",
		"borough" : "Manhattan",
		"zip" : "10027",
		"latitude" : "40.812182",
		"longitude" : "-73.953223",
		"assisted_units" : "99",
		"0br" : "0",
		"1br" : "60",
		"2br" : "39",
		"3br" : "0",
		"4br" : "0",
		"specific_target" : "1",
		"family" : "1",
		"elderly" : "0",
		"disabled" : "0",
		"homeless" : "0",
		"other" : "0",
		"other_specified" : ""
	},
	{
		"hud_id" : "NYA0000129",
		"name" : "Bronx Andrews Assoc",
		"address" : "2341 ANDREWS AVE",
		"city" : "BRONX",
		"state" : "NY",
		"borough" : "Bronx",
		"zip" : "10468",
		"latitude" : "40.862354",
		"longitude" : "-73.906794",
		"assisted_units" : "15",
		"0br" : "0",
		"1br" : "0",
		"2br" : "0",
		"3br" : "10",
		"4br" : "5",
		"specific_target" : "1",
		"family" : "1",
		"elderly" : "0",
		"disabled" : "0",
		"homeless" : "0",
		"other" : "0",
		"other_specified" : ""
	},
	{
		"hud_id" : "NYA0000130",
		"name" : "1220 Grand Concourse",
		"address" : "1220 GRAND CONCOURSE",
		"city" : "BRONX",
		"state" : "NY",
		"borough" : "Bronx",
		"zip" : "10456",
		"latitude" : "40.834768",
		"longitude" : "-73.916918",
		"assisted_units" : "5",
		"0br" : "0",
		"1br" : "3",
		"2br" : "2",
		"3br" : "0",
		"4br" : "0",
		"specific_target" : "1",
		"family" : "1",
		"elderly" : "0",
		"disabled" : "0",
		"homeless" : "0",
		"other" : "0",
		"other_specified" : ""
	},
	{
		"hud_id" : "NYA0000131",
		"name" : "95 Thayer St",
		"address" : "95 THAYER ST",
		"city" : "NEW YORK",
		"state" : "NY",
		"borough" : "Manhattan",
		"zip" : "10040",
		"latitude" : "40.864042",
		"longitude" : "-73.927196",
		"assisted_units" : "21",
		"0br" : "0",
		"1br" : "9",
		"2br" : "12",
		"3br" : "0",
		"4br" : "0",
		"specific_target" : "1",
		"family" : "2",
		"elderly" : "1",
		"disabled" : "0",
		"homeless" : "0",
		"other" : "0",
		"other_specified" : ""
	},
	{
		"hud_id" : "NYA0000140",
		"name" : "1290 Grand Concourse",
		"address" : "1290 GRAND CONCOURSE",
		"city" : "BRONX",
		"state" : "NY",
		"borough" : "Bronx",
		"zip" : "10456",
		"latitude" : "40.836315",
		"longitude" : "-73.915425",
		"assisted_units" : "21",
		"0br" : "1",
		"1br" : "4",
		"2br" : "12",
		"3br" : "4",
		"4br" : "0",
		"specific_target" : "1",
		"family" : "1",
		"elderly" : "0",
		"disabled" : "0",
		"homeless" : "0",
		"other" : "0",
		"other_specified" : ""
	},
	{
		"hud_id" : "NYA0000141",
		"name" : "Revive 103 North Assoc Inc",
		"address" : "159 E 103RD ST",
		"city" : "NEW YORK",
		"state" : "NY",
		"borough" : "Manhattan",
		"zip" : "10029",
		"latitude" : "40.790193",
		"longitude" : "-73.946936",
		"assisted_units" : "7",
		"0br" : "0",
		"1br" : "5",
		"2br" : "2",
		"3br" : "0",
		"4br" : "0",
		"specific_target" : "1",
		"family" : "1",
		"elderly" : "0",
		"disabled" : "0",
		"homeless" : "0",
		"other" : "0",
		"other_specified" : ""
	},
	{
		"hud_id" : "NYA0000145",
		"name" : "1330 Willoughby Ave",
		"address" : "1330 WILLOUGHBY AVE",
		"city" : "BROOKLYN",
		"state" : "NY",
		"borough" : "Brooklyn",
		"zip" : "11237",
		"latitude" : "40.705643",
		"longitude" : "-73.921162",
		"assisted_units" : "15",
		"0br" : "3",
		"1br" : "5",
		"2br" : "6",
		"3br" : "1",
		"4br" : "0",
		"specific_target" : "1",
		"family" : "1",
		"elderly" : "0",
		"disabled" : "0",
		"homeless" : "0",
		"other" : "0",
		"other_specified" : ""
	},
	{
		"hud_id" : "NYA0000147",
		"name" : "South Eighth Street Partnership",
		"address" : "176 S 8TH ST",
		"city" : "BROOKLYN",
		"state" : "NY",
		"borough" : "Brooklyn",
		"zip" : "11211",
		"latitude" : "40.709166",
		"longitude" : "-73.962224",
		"assisted_units" : "30",
		"0br" : "6",
		"1br" : "7",
		"2br" : "12",
		"3br" : "5",
		"4br" : "0",
		"specific_target" : "1",
		"family" : "1",
		"elderly" : "0",
		"disabled" : "0",
		"homeless" : "1",
		"other" : "0",
		"other_specified" : ""
	},
	{
		"hud_id" : "NYA0000152",
		"name" : "St Marks Episcopal Hdfc",
		"address" : "1777 BEDFORD AVE",
		"city" : "BROOKLYN",
		"state" : "NY",
		"borough" : "Brooklyn",
		"zip" : "11225",
		"latitude" : "40.662716",
		"longitude" : "-73.956903",
		"assisted_units" : "53",
		"0br" : "0",
		"1br" : "13",
		"2br" : "39",
		"3br" : "1",
		"4br" : "0",
		"specific_target" : "1",
		"family" : "1",
		"elderly" : "0",
		"disabled" : "0",
		"homeless" : "0",
		"other" : "0",
		"other_specified" : ""
	},
	{
		"hud_id" : "NYA0000153",
		"name" : "St Edmunds Court",
		"address" : "1892 MORRIS AVE",
		"city" : "BRONX",
		"state" : "NY",
		"borough" : "Bronx",
		"zip" : "10453",
		"latitude" : "40.849182",
		"longitude" : "-73.907959",
		"assisted_units" : "28",
		"0br" : "2",
		"1br" : "13",
		"2br" : "8",
		"3br" : "5",
		"4br" : "0",
		"specific_target" : "1",
		"family" : "1",
		"elderly" : "0",
		"disabled" : "0",
		"homeless" : "0",
		"other" : "0",
		"other_specified" : ""
	},
	{
		"hud_id" : "NYA0000154",
		"name" : "St Johns Place",
		"address" : "1216 SAINT JOHNS PL",
		"city" : "BROOKLYN",
		"state" : "NY",
		"borough" : "Brooklyn",
		"zip" : "11213",
		"latitude" : "40.670807",
		"longitude" : "-73.938057",
		"assisted_units" : "22",
		"0br" : "0",
		"1br" : "0",
		"2br" : "16",
		"3br" : "6",
		"4br" : "0",
		"specific_target" : "1",
		"family" : "1",
		"elderly" : "0",
		"disabled" : "0",
		"homeless" : "0",
		"other" : "0",
		"other_specified" : ""
	},
	{
		"hud_id" : "NYA0000159",
		"name" : "U-p Rehabilitation Assoc",
		"address" : "1574 UNION ST",
		"city" : "BROOKLYN",
		"state" : "NY",
		"borough" : "Brooklyn",
		"zip" : "11213",
		"latitude" : "40.667986",
		"longitude" : "-73.937103",
		"assisted_units" : "6",
		"0br" : "0",
		"1br" : "4",
		"2br" : "2",
		"3br" : "0",
		"4br" : "0",
		"specific_target" : "1",
		"family" : "1",
		"elderly" : "0",
		"disabled" : "1",
		"homeless" : "0",
		"other" : "0",
		"other_specified" : ""
	},
	{
		"hud_id" : "NYA0000160",
		"name" : "1666 Union St",
		"address" : "1666 UNION ST",
		"city" : "BROOKLYN",
		"state" : "NY",
		"borough" : "Brooklyn",
		"zip" : "11213",
		"latitude" : "40.667783",
		"longitude" : "-73.933473",
		"assisted_units" : "6",
		"0br" : "0",
		"1br" : "0",
		"2br" : "4",
		"3br" : "2",
		"4br" : "0",
		"specific_target" : "1",
		"family" : "1",
		"elderly" : "0",
		"disabled" : "1",
		"homeless" : "0",
		"other" : "0",
		"other_specified" : ""
	},
	{
		"hud_id" : "NYA0000161",
		"name" : "U-p Rehabilitation Assoc",
		"address" : "1726 UNION ST",
		"city" : "BROOKLYN",
		"state" : "NY",
		"borough" : "Brooklyn",
		"zip" : "11213",
		"latitude" : "40.667651",
		"longitude" : "-73.931096",
		"assisted_units" : "4",
		"0br" : "0",
		"1br" : "2",
		"2br" : "2",
		"3br" : "0",
		"4br" : "0",
		"specific_target" : "1",
		"family" : "1",
		"elderly" : "0",
		"disabled" : "1",
		"homeless" : "0",
		"other" : "0",
		"other_specified" : ""
	},
	{
		"hud_id" : "NYA0000162",
		"name" : "Unity House",
		"address" : "77 AVENUE C",
		"city" : "NEW YORK",
		"state" : "NY",
		"borough" : "Manhattan",
		"zip" : "10009",
		"latitude" : "40.723132",
		"longitude" : "-73.979785",
		"assisted_units" : "15",
		"0br" : "0",
		"1br" : "9",
		"2br" : "6",
		"3br" : "0",
		"4br" : "0",
		"specific_target" : "1",
		"family" : "1",
		"elderly" : "0",
		"disabled" : "0",
		"homeless" : "0",
		"other" : "0",
		"other_specified" : ""
	},
	{
		"hud_id" : "NYA0000165",
		"name" : "1681 President St",
		"address" : "1681 PRESIDENT ST",
		"city" : "BROOKLYN",
		"state" : "NY",
		"borough" : "Brooklyn",
		"zip" : "11213",
		"latitude" : "40.667195",
		"longitude" : "-73.931567",
		"assisted_units" : "4",
		"0br" : "0",
		"1br" : "2",
		"2br" : "2",
		"3br" : "0",
		"4br" : "0",
		"specific_target" : "1",
		"family" : "1",
		"elderly" : "0",
		"disabled" : "1",
		"homeless" : "0",
		"other" : "0",
		"other_specified" : ""
	},
	{
		"hud_id" : "NYA0000169",
		"name" : "W 116th St",
		"address" : "307 W 116TH ST",
		"city" : "NEW YORK",
		"state" : "NY",
		"borough" : "Manhattan",
		"zip" : "10026",
		"latitude" : "40.804634",
		"longitude" : "-73.955421",
		"assisted_units" : "29",
		"0br" : "29",
		"1br" : "0",
		"2br" : "0",
		"3br" : "0",
		"4br" : "0",
		"specific_target" : "1",
		"family" : "1",
		"elderly" : "0",
		"disabled" : "0",
		"homeless" : "0",
		"other" : "0",
		"other_specified" : ""
	},
	{
		"hud_id" : "NYA0000173",
		"name" : "West 107 Street",
		"address" : "171 W 107TH ST",
		"city" : "NEW YORK",
		"state" : "NY",
		"borough" : "Manhattan",
		"zip" : "10025",
		"latitude" : "40.800965",
		"longitude" : "-73.964418",
		"assisted_units" : "25",
		"0br" : "0",
		"1br" : "0",
		"2br" : "15",
		"3br" : "10",
		"4br" : "0",
		"specific_target" : "1",
		"family" : "2",
		"elderly" : "1",
		"disabled" : "0",
		"homeless" : "0",
		"other" : "0",
		"other_specified" : ""
	},
	{
		"hud_id" : "NYA0000174",
		"name" : "West Harlem Community Organization Inc",
		"address" : "202 SAINT NICHOLAS AVE",
		"city" : "NEW YORK",
		"state" : "NY",
		"borough" : "Manhattan",
		"zip" : "10027",
		"latitude" : "40.806814",
		"longitude" : "-73.952647",
		"assisted_units" : "27",
		"0br" : "0",
		"1br" : "10",
		"2br" : "17",
		"3br" : "0",
		"4br" : "0",
		"specific_target" : "1",
		"family" : "1",
		"elderly" : "0",
		"disabled" : "0",
		"homeless" : "0",
		"other" : "0",
		"other_specified" : ""
	},
	{
		"hud_id" : "NYA0000185",
		"name" : "1850 2nd Ave",
		"address" : "1850 2ND AVE",
		"city" : "NEW YORK",
		"state" : "NY",
		"borough" : "Manhattan",
		"zip" : "10128",
		"latitude" : "40.783906",
		"longitude" : "-73.947087",
		"assisted_units" : "48",
		"0br" : "12",
		"1br" : "26",
		"2br" : "10",
		"3br" : "0",
		"4br" : "0",
		"specific_target" : "1",
		"family" : "1",
		"elderly" : "0",
		"disabled" : "0",
		"homeless" : "0",
		"other" : "0",
		"other_specified" : ""
	},
	{
		"hud_id" : "NYA0000205",
		"name" : "Senate Residence",
		"address" : "206 W 92ND ST",
		"city" : "NEW YORK",
		"state" : "NY",
		"borough" : "Manhattan",
		"zip" : "10025",
		"latitude" : "40.791432",
		"longitude" : "-73.972526",
		"assisted_units" : "140",
		"0br" : "140",
		"1br" : "0",
		"2br" : "0",
		"3br" : "0",
		"4br" : "0",
		"specific_target" : "1",
		"family" : "1",
		"elderly" : "0",
		"disabled" : "0",
		"homeless" : "0",
		"other" : "0",
		"other_specified" : ""
	},
	{
		"hud_id" : "NYA0000210",
		"name" : "235 E 14th St",
		"address" : "235 E 14TH ST",
		"city" : "NEW YORK",
		"state" : "NY",
		"borough" : "Manhattan",
		"zip" : "10003",
		"latitude" : "40.733111",
		"longitude" : "-73.986311",
		"assisted_units" : "17",
		"0br" : "0",
		"1br" : "6",
		"2br" : "11",
		"3br" : "0",
		"4br" : "0",
		"specific_target" : "1",
		"family" : "2",
		"elderly" : "1",
		"disabled" : "0",
		"homeless" : "0",
		"other" : "0",
		"other_specified" : ""
	},
	{
		"hud_id" : "NYA0000215",
		"name" : "255 Linden St",
		"address" : "255 LINDEN ST",
		"city" : "BROOKLYN",
		"state" : "NY",
		"borough" : "Brooklyn",
		"zip" : "11237",
		"latitude" : "40.697746",
		"longitude" : "-73.915393",
		"assisted_units" : "21",
		"0br" : "0",
		"1br" : "10",
		"2br" : "9",
		"3br" : "2",
		"4br" : "0",
		"specific_target" : "1",
		"family" : "1",
		"elderly" : "0",
		"disabled" : "0",
		"homeless" : "0",
		"other" : "0",
		"other_specified" : ""
	},
	{
		"hud_id" : "NYA0000230",
		"name" : "Allerton Assoc",
		"address" : "2700 BRONX PARK E",
		"city" : "BRONX",
		"state" : "NY",
		"borough" : "Bronx",
		"zip" : "10467",
		"latitude" : "40.866658",
		"longitude" : "-73.87021",
		"assisted_units" : "698",
		"0br" : "0",
		"1br" : "495",
		"2br" : "186",
		"3br" : "17",
		"4br" : "0",
		"specific_target" : "1",
		"family" : "1",
		"elderly" : "0",
		"disabled" : "0",
		"homeless" : "0",
		"other" : "0",
		"other_specified" : ""
	},
	{
		"hud_id" : "NYA0000320",
		"name" : "Ambassador Court Assoc",
		"address" : "565 CROWN ST",
		"city" : "BROOKLYN",
		"state" : "NY",
		"borough" : "Brooklyn",
		"zip" : "11213",
		"latitude" : "40.665855",
		"longitude" : "-73.939656",
		"assisted_units" : "11",
		"0br" : "0",
		"1br" : "2",
		"2br" : "7",
		"3br" : "2",
		"4br" : "0",
		"specific_target" : "1",
		"family" : "1",
		"elderly" : "0",
		"disabled" : "0",
		"homeless" : "0",
		"other" : "0",
		"other_specified" : ""
	},
	{
		"hud_id" : "NYA0000405",
		"name" : "1111 Gerard Ave",
		"address" : "1111 GERARD AVE",
		"city" : "BRONX",
		"state" : "NY",
		"borough" : "Bronx",
		"zip" : "10452",
		"latitude" : "40.833035",
		"longitude" : "-73.921933",
		"assisted_units" : "120",
		"0br" : "40",
		"1br" : "17",
		"2br" : "63",
		"3br" : "0",
		"4br" : "0",
		"specific_target" : "1",
		"family" : "1",
		"elderly" : "0",
		"disabled" : "0",
		"homeless" : "0",
		"other" : "0",
		"other_specified" : ""
	},
	{
		"hud_id" : "NYA0000675",
		"name" : "1965 Vyse Ave",
		"address" : "1965 VYSE AVE",
		"city" : "BRONX",
		"state" : "NY",
		"borough" : "Bronx",
		"zip" : "10460",
		"latitude" : "40.841668",
		"longitude" : "-73.882738",
		"assisted_units" : "18",
		"0br" : "1",
		"1br" : "4",
		"2br" : "8",
		"3br" : "5",
		"4br" : "0",
		"specific_target" : "1",
		"family" : "0",
		"elderly" : "0",
		"disabled" : "0",
		"homeless" : "1",
		"other" : "0",
		"other_specified" : ""
	},
	{
		"hud_id" : "NYA0000955",
		"name" : "820 Washington Ave",
		"address" : "820 WASHINGTON AVE",
		"city" : "BROOKLYN",
		"state" : "NY",
		"borough" : "Brooklyn",
		"zip" : "11238",
		"latitude" : "40.673437",
		"longitude" : "-73.96314",
		"assisted_units" : "22",
		"0br" : "0",
		"1br" : "12",
		"2br" : "5",
		"3br" : "5",
		"4br" : "0",
		"specific_target" : "1",
		"family" : "1",
		"elderly" : "0",
		"disabled" : "0",
		"homeless" : "0",
		"other" : "0",
		"other_specified" : ""
	},
	{
		"hud_id" : "NYA1988020",
		"name" : "Marwyte Realty Assoc",
		"address" : "9 MARCY PL",
		"city" : "BRONX",
		"state" : "NY",
		"borough" : "Bronx",
		"zip" : "10452",
		"latitude" : "40.839038",
		"longitude" : "-73.918272",
		"assisted_units" : "132",
		"0br" : "8",
		"1br" : "63",
		"2br" : "43",
		"3br" : "18",
		"4br" : "0",
		"specific_target" : "1",
		"family" : "1",
		"elderly" : "0",
		"disabled" : "0",
		"homeless" : "0",
		"other" : "0",
		"other_specified" : ""
	},
	{
		"hud_id" : "NYA1989032",
		"name" : "W 104th St",
		"address" : "123 W 104TH ST",
		"city" : "NEW YORK",
		"state" : "NY",
		"borough" : "Manhattan",
		"zip" : "10025",
		"latitude" : "40.79857",
		"longitude" : "-73.964955",
		"assisted_units" : "56",
		"0br" : "21",
		"1br" : "21",
		"2br" : "14",
		"3br" : "0",
		"4br" : "0",
		"specific_target" : "1",
		"family" : "1",
		"elderly" : "0",
		"disabled" : "0",
		"homeless" : "0",
		"other" : "0",
		"other_specified" : ""
	}
]
